{"type": "FeatureCollection", "features": [{"type": "Feature", "id": "PS_TENDO", "geometry": {"type": "Point", "coordinates": [140.369303, 38.35989]}, "properties": {"id": "PS_TENDO", "station_group_id": "SG_TENDO", "name_en": "Tendo", "name_ja": "天童", "label_rank": 50, "tags": ["normal", "shinkansen"]}}, {"type": "Feature", "id": "PS_SAKURANBO_HIGASHINE", "geometry": {"type": "Point", "coordinates": [140.380677, 38.42806]}, "properties": {"id": "PS_SAKURANBO_HIGASHINE", "station_group_id": "SG_SAKURANBO_HIGASHINE", "name_en": "Sakuranbo-Higashine", "name_ja": "さくらんぼ東根", "label_rank": 50, "tags": ["normal", "shinkansen"]}}, {"type": "Feature", "id": "PS_MURAYAMA", "geometry": {"type": "Point", "coordinates": [140.386399, 38.477078]}, "properties": {"id": "PS_MURAYAMA", "station_group_id": "SG_MURAYAMA", "name_en": "Murayama", "name_ja": "村山", "label_rank": 50, "tags": ["normal", "shinkansen"]}}, {"type": "Feature", "id": "PS_OISHIDA", "geometry": {"type": "Point", "coordinates": [140.375349, 38.595916]}, "properties": {"id": "PS_OISHIDA", "station_group_id": "SG_OISHIDA", "name_en": "Oishida", "name_ja": "大石田", "label_rank": 50, "tags": ["normal", "shinkansen"]}}, {"type": "Feature", "id": "PS_SHINJO", "geometry": {"type": "Point", "coordinates": [140.306064, 38.76256]}, "properties": {"id": "PS_SHINJO", "station_group_id": "SG_SHINJO", "name_en": "Shinjo", "name_ja": "新庄", "label_rank": 100, "tags": ["hub", "shinkansen"]}}]}