{"type": "FeatureCollection", "features": [{"type": "Feature", "id": "PS_FUKUSHIMA", "geometry": {"type": "Point", "coordinates": [140.45968, 37.754123]}, "properties": {"id": "PS_FUKUSHIMA", "station_group_id": "SG_FUKUSHIMA", "name_en": "Fukushima", "name_ja": "福島", "label_rank": 100, "tags": ["hub", "shinkansen"]}}, {"type": "Feature", "id": "PS_SHIROISHI_ZAO", "geometry": {"type": "Point", "coordinates": [140.63308611, 37.99554444]}, "properties": {"id": "PS_SHIROISHI_ZAO", "station_group_id": "SG_SHIROISHI_ZAO", "name_en": "Shiroishi-Zao", "name_ja": "白石蔵王", "label_rank": 50, "tags": ["normal", "shinkansen"]}}, {"type": "Feature", "id": "PS_TAKAHATA", "geometry": {"type": "Point", "coordinates": [140.15281, 37.992314]}, "properties": {"id": "PS_TAKAHATA", "station_group_id": "SG_TAKAHATA", "name_en": "Takahata", "name_ja": "高畠", "label_rank": 50, "tags": ["normal", "shinkansen"]}}, {"type": "Feature", "id": "PS_AKAYU", "geometry": {"type": "Point", "coordinates": [140.148978, 38.047081]}, "properties": {"id": "PS_AKAYU", "station_group_id": "SG_AKAYU", "name_en": "Akayu", "name_ja": "赤湯", "label_rank": 50, "tags": ["normal", "shinkansen"]}}, {"type": "Feature", "id": "PS_KAMINOYAMA_ONSEN", "geometry": {"type": "Point", "coordinates": [140.27867, 38.152259]}, "properties": {"id": "PS_KAMINOYAMA_ONSEN", "station_group_id": "SG_KAMINOYAMA_ONSEN", "name_en": "Kaminoyama-Onsen", "name_ja": "かみのやま温泉", "label_rank": 50, "tags": ["normal", "shinkansen"]}}, {"type": "Feature", "id": "PS_YAMAGATA", "geometry": {"type": "Point", "coordinates": [140.327253, 38.248098]}, "properties": {"id": "PS_YAMAGATA", "station_group_id": "SG_YAMAGATA", "name_en": "Yamagata", "name_ja": "山形", "label_rank": 100, "tags": ["hub", "shinkansen"]}}]}