{"type": "FeatureCollection", "features": [{"type": "Feature", "id": "PS_TAKEO_ONSEN", "geometry": {"type": "Point", "coordinates": [130.022322, 33.196151]}, "properties": {"id": "PS_TAKEO_ONSEN", "station_group_id": "SG_TAKEO_ONSEN", "name_en": "Takeo-Onsen", "name_ja": "武雄温泉", "label_rank": 100, "tags": ["hub", "shinkansen"]}}, {"type": "Feature", "id": "PS_URESHINO_ONSEN", "geometry": {"type": "Point", "coordinates": [129.99897222, 33.10655556]}, "properties": {"id": "PS_URESHINO_ONSEN", "station_group_id": "SG_URESHINO_ONSEN", "name_en": "Ureshino-Onsen", "name_ja": "嬉野温泉", "label_rank": 50, "tags": ["normal", "shinkansen"]}}, {"type": "Feature", "id": "PS_SHIN_OMURA", "geometry": {"type": "Point", "coordinates": [129.95694444, 32.93277778]}, "properties": {"id": "PS_SHIN_OMURA", "station_group_id": "SG_SHIN_OMURA", "name_en": "Shin-Omura", "name_ja": "新大村", "label_rank": 50, "tags": ["normal", "shinkansen"]}}, {"type": "Feature", "id": "PS_ISAHAYA", "geometry": {"type": "Point", "coordinates": [130.041596, 32.851018]}, "properties": {"id": "PS_ISAHAYA", "station_group_id": "SG_ISAHAYA", "name_en": "Isahaya", "name_ja": "諫早", "label_rank": 100, "tags": ["hub", "shinkansen"]}}, {"type": "Feature", "id": "PS_NAGASAKI", "geometry": {"type": "Point", "coordinates": [129.86905556, 32.75275]}, "properties": {"id": "PS_NAGASAKI", "station_group_id": "SG_NAGASAKI", "name_en": "Nagasaki", "name_ja": "長崎", "label_rank": 100, "tags": ["hub", "shinkansen"]}}]}