[
  {
    "id": "TOKYO",
    "name": "Tokyo",
    "names": {
      "en": "Tokyo",
      "ja": "東京",
      "zh_hans": "Tokyo"
    },
    "category": "hub",
    "lat": 35.681391,
    "lon": 139.766103,
    "geometry_seed": {
      "x": 1310,
      "y": 1790
    },
    "latlon_status": "real",
    "latlon_source": "open-data-jp-railway-stations"
  },
  {
    "id": "UENO",
    "name": "Ueno",
    "names": {
      "en": "Ueno",
      "ja": "上野",
      "zh_hans": "Ueno"
    },
    "category": "hub",
    "lat": 35.71379,
    "lon": 139.777043,
    "geometry_seed": {
      "x": 1320,
      "y": 1718
    },
    "latlon_status": "real",
    "latlon_source": "open-data-jp-railway-stations"
  },
  {
    "id": "OMIYA",
    "name": "Omiya",
    "names": {
      "en": "Omiya",
      "ja": "大宮",
      "zh_hans": "Omiya"
    },
    "category": "hub",
    "lat": 35.906439,
    "lon": 139.62405,
    "geometry_seed": {
      "x": 1332,
      "y": 1646
    },
    "latlon_status": "real",
    "latlon_source": "open-data-jp-railway-stations"
  },
  {
    "id": "KUMAGAYA",
    "name": "Kumagaya",
    "names": {
      "en": "Kumagaya",
      "ja": "熊谷",
      "zh_hans": "Kumagaya"
    },
    "category": "normal",
    "lat": 36.139627,
    "lon": 139.389528,
    "geometry_seed": {
      "x": 1352,
      "y": 1560
    },
    "latlon_status": "real",
    "latlon_source": "open-data-jp-railway-stations"
  },
  {
    "id": "HONJO_WASEDA",
    "name": "Honjo-Waseda",
    "names": {
      "en": "Honjo-Waseda",
      "ja": "本庄早稲田",
      "zh_hans": "Honjo-Waseda"
    },
    "category": "normal",
    "lat": 36.21883333,
    "lon": 139.1795,
    "geometry_seed": {
      "x": 1372,
      "y": 1480
    },
    "latlon_status": "real",
    "latlon_source": "ja.wikipedia.org"
  },
  {
    "id": "TAKASAKI",
    "name": "Takasaki",
    "names": {
      "en": "Takasaki",
      "ja": "高崎",
      "zh_hans": "Takasaki"
    },
    "category": "hub",
    "lat": 36.322239,
    "lon": 139.012354,
    "geometry_seed": {
      "x": 1394,
      "y": 1400
    },
    "latlon_status": "real",
    "latlon_source": "open-data-jp-railway-stations"
  },
  {
    "id": "OYAMA",
    "name": "Oyama",
    "names": {
      "en": "Oyama",
      "ja": "小山",
      "zh_hans": "Oyama"
    },
    "category": "normal",
    "lat": 36.312747,
    "lon": 139.806241,
    "geometry_seed": {
      "x": 1384,
      "y": 1538
    },
    "latlon_status": "real",
    "latlon_source": "open-data-jp-railway-stations"
  },
  {
    "id": "UTSUNOMIYA",
    "name": "Utsunomiya",
    "names": {
      "en": "Utsunomiya",
      "ja": "宇都宮",
      "zh_hans": "Utsunomiya"
    },
    "category": "normal",
    "lat": 36.559246,
    "lon": 139.898389,
    "geometry_seed": {
      "x": 1420,
      "y": 1456
    },
    "latlon_status": "real",
    "latlon_source": "open-data-jp-railway-stations"
  },
  {
    "id": "NASUSHIOBARA",
    "name": "Nasushiobara",
    "names": {
      "en": "Nasushiobara",
      "ja": "那須塩原",
      "zh_hans": "Nasushiobara"
    },
    "category": "normal",
    "lat": 36.931956,
    "lon": 140.020694,
    "geometry_seed": {
      "x": 1456,
      "y": 1368
    },
    "latlon_status": "real",
    "latlon_source": "open-data-jp-railway-stations"
  },
  {
    "id": "SHIN_SHIRAKAWA",
    "name": "Shin-Shirakawa",
    "names": {
      "en": "Shin-Shirakawa",
      "ja": "新白河",
      "zh_hans": "Shin-Shirakawa"
    },
    "category": "normal",
    "lat": 37.12331,
    "lon": 140.188969,
    "geometry_seed": {
      "x": 1492,
      "y": 1282
    },
    "latlon_status": "real",
    "latlon_source": "open-data-jp-railway-stations"
  },
  {
    "id": "KORIYAMA",
    "name": "Koriyama",
    "names": {
      "en": "Koriyama",
      "ja": "郡山",
      "zh_hans": "Koriyama"
    },
    "category": "normal",
    "lat": 37.398187,
    "lon": 140.389363,
    "geometry_seed": {
      "x": 1528,
      "y": 1196
    },
    "latlon_status": "real",
    "latlon_source": "open-data-jp-railway-stations"
  },
  {
    "id": "FUKUSHIMA",
    "name": "Fukushima",
    "names": {
      "en": "Fukushima",
      "ja": "福島",
      "zh_hans": "Fukushima"
    },
    "category": "hub",
    "lat": 37.754123,
    "lon": 140.45968,
    "geometry_seed": {
      "x": 1564,
      "y": 1108
    },
    "latlon_status": "real",
    "latlon_source": "open-data-jp-railway-stations"
  },
  {
    "id": "SHIROISHI_ZAO",
    "name": "Shiroishi-Zao",
    "names": {
      "en": "Shiroishi-Zao",
      "ja": "白石蔵王",
      "zh_hans": "Shiroishi-Zao"
    },
    "category": "normal",
    "lat": 37.99554444,
    "lon": 140.63308611,
    "geometry_seed": {
      "x": 1600,
      "y": 1022
    },
    "latlon_status": "real",
    "latlon_source": "ja.wikipedia.org"
  },
  {
    "id": "SENDAI_TOHOKU",
    "name": "Sendai",
    "names": {
      "en": "Sendai",
      "ja": "仙台",
      "zh_hans": "Sendai"
    },
    "category": "hub",
    "lat": 38.260749,
    "lon": 140.878514,
    "geometry_seed": {
      "x": 1636,
      "y": 936
    },
    "latlon_status": "real",
    "latlon_source": "open-data-jp-railway-stations"
  },
  {
    "id": "FURUKAWA",
    "name": "Furukawa",
    "names": {
      "en": "Furukawa",
      "ja": "古川",
      "zh_hans": "Furukawa"
    },
    "category": "normal",
    "lat": 38.571192,
    "lon": 140.967876,
    "geometry_seed": {
      "x": 1668,
      "y": 852
    },
    "latlon_status": "real",
    "latlon_source": "open-data-jp-railway-stations"
  },
  {
    "id": "KURIKOMA_KOGEN",
    "name": "Kurikoma-Kogen",
    "names": {
      "en": "Kurikoma-Kogen",
      "ja": "くりこま高原",
      "zh_hans": "Kurikoma-Kogen"
    },
    "category": "normal",
    "lat": 38.74913611,
    "lon": 141.0718,
    "geometry_seed": {
      "x": 1700,
      "y": 770
    },
    "latlon_status": "real",
    "latlon_source": "ja.wikipedia.org"
  },
  {
    "id": "ICHINOSEKI",
    "name": "Ichinoseki",
    "names": {
      "en": "Ichinoseki",
      "ja": "一ノ関",
      "zh_hans": "Ichinoseki"
    },
    "category": "normal",
    "lat": 38.926514,
    "lon": 141.138177,
    "geometry_seed": {
      "x": 1734,
      "y": 688
    },
    "latlon_status": "real",
    "latlon_source": "open-data-jp-railway-stations"
  },
  {
    "id": "MIZUSAWA_ESASHI",
    "name": "Mizusawa-Esashi",
    "names": {
      "en": "Mizusawa-Esashi",
      "ja": "水沢江刺",
      "zh_hans": "Mizusawa-Esashi"
    },
    "category": "normal",
    "lat": 39.145325,
    "lon": 141.18873333,
    "geometry_seed": {
      "x": 1766,
      "y": 616
    },
    "latlon_status": "real",
    "latlon_source": "ja.wikipedia.org"
  },
  {
    "id": "KITAKAMI",
    "name": "Kitakami",
    "names": {
      "en": "Kitakami",
      "ja": "北上",
      "zh_hans": "Kitakami"
    },
    "category": "normal",
    "lat": 39.281196,
    "lon": 141.121221,
    "geometry_seed": {
      "x": 1796,
      "y": 546
    },
    "latlon_status": "real",
    "latlon_source": "open-data-jp-railway-stations"
  },
  {
    "id": "SHIN_HANAMAKI",
    "name": "Shin-Hanamaki",
    "names": {
      "en": "Shin-Hanamaki",
      "ja": "新花巻",
      "zh_hans": "Shin-Hanamaki"
    },
    "category": "normal",
    "lat": 39.405839,
    "lon": 141.17302,
    "geometry_seed": {
      "x": 1826,
      "y": 478
    },
    "latlon_status": "real",
    "latlon_source": "open-data-jp-railway-stations"
  },
  {
    "id": "MORIOKA",
    "name": "Morioka",
    "names": {
      "en": "Morioka",
      "ja": "盛岡",
      "zh_hans": "Morioka"
    },
    "category": "hub",
    "lat": 39.701547,
    "lon": 141.136599,
    "geometry_seed": {
      "x": 1858,
      "y": 410
    },
    "latlon_status": "real",
    "latlon_source": "open-data-jp-railway-stations"
  },
  {
    "id": "IWATE_NUMAKUNAI",
    "name": "Iwate-Numakunai",
    "names": {
      "en": "Iwate-Numakunai",
      "ja": "いわて沼宮内",
      "zh_hans": "Iwate-Numakunai"
    },
    "category": "normal",
    "lat": 39.960155,
    "lon": 141.216955,
    "geometry_seed": {
      "x": 1890,
      "y": 340
    },
    "latlon_status": "real",
    "latlon_source": "open-data-jp-railway-stations"
  },
  {
    "id": "NINOHE",
    "name": "Ninohe",
    "names": {
      "en": "Ninohe",
      "ja": "二戸",
      "zh_hans": "Ninohe"
    },
    "category": "normal",
    "lat": 40.25997,
    "lon": 141.286211,
    "geometry_seed": {
      "x": 1922,
      "y": 272
    },
    "latlon_status": "real",
    "latlon_source": "open-data-jp-railway-stations"
  },
  {
    "id": "HACHINOHE",
    "name": "Hachinohe",
    "names": {
      "en": "Hachinohe",
      "ja": "八戸",
      "zh_hans": "Hachinohe"
    },
    "category": "normal",
    "lat": 40.5092,
    "lon": 141.431499,
    "geometry_seed": {
      "x": 1954,
      "y": 204
    },
    "latlon_status": "real",
    "latlon_source": "open-data-jp-railway-stations"
  },
  {
    "id": "SHICHINOHE_TOWADA",
    "name": "Shichinohe-Towada",
    "names": {
      "en": "Shichinohe-Towada",
      "ja": "七戸十和田",
      "zh_hans": "Shichinohe-Towada"
    },
    "category": "normal",
    "lat": 40.71986111,
    "lon": 141.15402778,
    "geometry_seed": {
      "x": 1986,
      "y": 136
    },
    "latlon_status": "real",
    "latlon_source": "ja.wikipedia.org"
  },
  {
    "id": "SHIN_AOMORI",
    "name": "Shin-Aomori",
    "names": {
      "en": "Shin-Aomori",
      "ja": "新青森",
      "zh_hans": "Shin-Aomori"
    },
    "category": "hub",
    "lat": 40.8275,
    "lon": 140.693472,
    "geometry_seed": {
      "x": 2018,
      "y": 72
    },
    "latlon_status": "real",
    "latlon_source": "open-data-jp-railway-stations"
  },
  {
    "id": "OKU_TSUGARU_IMABETSU",
    "name": "Oku-Tsugaru-Imabetsu",
    "names": {
      "en": "Oku-Tsugaru-Imabetsu",
      "ja": "奥津軽いまべつ",
      "zh_hans": "Oku-Tsugaru-Imabetsu"
    },
    "category": "normal",
    "lat": 41.14508333,
    "lon": 140.51544444,
    "geometry_seed": {
      "x": 2062,
      "y": 24
    },
    "latlon_status": "real",
    "latlon_source": "ja.wikipedia.org"
  },
  {
    "id": "KIKONAI",
    "name": "Kikonai",
    "names": {
      "en": "Kikonai",
      "ja": "木古内",
      "zh_hans": "Kikonai"
    },
    "category": "normal",
    "lat": 41.677642,
    "lon": 140.434004,
    "geometry_seed": {
      "x": 2108,
      "y": -20
    },
    "latlon_status": "real",
    "latlon_source": "open-data-jp-railway-stations"
  },
  {
    "id": "SHIN_HAKODATE_HOKUTO",
    "name": "Shin-Hakodate-Hokuto",
    "names": {
      "en": "Shin-Hakodate-Hokuto",
      "ja": "新函館北斗",
      "zh_hans": "Shin-Hakodate-Hokuto"
    },
    "category": "hub",
    "lat": 41.9054,
    "lon": 140.646525,
    "geometry_seed": {
      "x": 2154,
      "y": -64
    },
    "latlon_status": "real",
    "latlon_source": "open-data-jp-railway-stations"
  },
  {
    "id": "YONEZAWA",
    "name": "Yonezawa",
    "names": {
      "en": "Yonezawa",
      "ja": "米沢",
      "zh_hans": "Yonezawa"
    },
    "category": "normal",
    "lat": 37.909478,
    "lon": 140.128209,
    "geometry_seed": {
      "x": 1478,
      "y": 1138
    },
    "latlon_status": "real",
    "latlon_source": "open-data-jp-railway-stations"
  },
  {
    "id": "TAKAHATA",
    "name": "Takahata",
    "names": {
      "en": "Takahata",
      "ja": "高畠",
      "zh_hans": "Takahata"
    },
    "category": "normal",
    "lat": 37.992314,
    "lon": 140.15281,
    "geometry_seed": {
      "x": 1418,
      "y": 1168
    },
    "latlon_status": "real",
    "latlon_source": "open-data-jp-railway-stations"
  },
  {
    "id": "AKAYU",
    "name": "Akayu",
    "names": {
      "en": "Akayu",
      "ja": "赤湯",
      "zh_hans": "Akayu"
    },
    "category": "normal",
    "lat": 38.047081,
    "lon": 140.148978,
    "geometry_seed": {
      "x": 1358,
      "y": 1202
    },
    "latlon_status": "real",
    "latlon_source": "open-data-jp-railway-stations"
  },
  {
    "id": "KAMINOYAMA_ONSEN",
    "name": "Kaminoyama-Onsen",
    "names": {
      "en": "Kaminoyama-Onsen",
      "ja": "かみのやま温泉",
      "zh_hans": "Kaminoyama-Onsen"
    },
    "category": "normal",
    "lat": 38.152259,
    "lon": 140.27867,
    "geometry_seed": {
      "x": 1298,
      "y": 1238
    },
    "latlon_status": "real",
    "latlon_source": "open-data-jp-railway-stations"
  },
  {
    "id": "YAMAGATA",
    "name": "Yamagata",
    "names": {
      "en": "Yamagata",
      "ja": "山形",
      "zh_hans": "Yamagata"
    },
    "category": "hub",
    "lat": 38.248098,
    "lon": 140.327253,
    "geometry_seed": {
      "x": 1238,
      "y": 1274
    },
    "latlon_status": "real",
    "latlon_source": "open-data-jp-railway-stations"
  },
  {
    "id": "TENDO",
    "name": "Tendo",
    "names": {
      "en": "Tendo",
      "ja": "天童",
      "zh_hans": "Tendo"
    },
    "category": "normal",
    "lat": 38.35989,
    "lon": 140.369303,
    "geometry_seed": {
      "x": 1178,
      "y": 1310
    },
    "latlon_status": "real",
    "latlon_source": "open-data-jp-railway-stations"
  },
  {
    "id": "SAKURANBO_HIGASHINE",
    "name": "Sakuranbo-Higashine",
    "names": {
      "en": "Sakuranbo-Higashine",
      "ja": "さくらんぼ東根",
      "zh_hans": "Sakuranbo-Higashine"
    },
    "category": "normal",
    "lat": 38.42806,
    "lon": 140.380677,
    "geometry_seed": {
      "x": 1118,
      "y": 1348
    },
    "latlon_status": "real",
    "latlon_source": "open-data-jp-railway-stations"
  },
  {
    "id": "MURAYAMA",
    "name": "Murayama",
    "names": {
      "en": "Murayama",
      "ja": "村山",
      "zh_hans": "Murayama"
    },
    "category": "normal",
    "lat": 38.477078,
    "lon": 140.386399,
    "geometry_seed": {
      "x": 1058,
      "y": 1388
    },
    "latlon_status": "real",
    "latlon_source": "open-data-jp-railway-stations"
  },
  {
    "id": "OISHIDA",
    "name": "Oishida",
    "names": {
      "en": "Oishida",
      "ja": "大石田",
      "zh_hans": "Oishida"
    },
    "category": "normal",
    "lat": 38.595916,
    "lon": 140.375349,
    "geometry_seed": {
      "x": 998,
      "y": 1428
    },
    "latlon_status": "real",
    "latlon_source": "open-data-jp-railway-stations"
  },
  {
    "id": "SHINJO",
    "name": "Shinjo",
    "names": {
      "en": "Shinjo",
      "ja": "新庄",
      "zh_hans": "Shinjo"
    },
    "category": "hub",
    "lat": 38.76256,
    "lon": 140.306064,
    "geometry_seed": {
      "x": 938,
      "y": 1468
    },
    "latlon_status": "real",
    "latlon_source": "open-data-jp-railway-stations"
  },
  {
    "id": "SHIZUKUISHI",
    "name": "Shizukuishi",
    "names": {
      "en": "Shizukuishi",
      "ja": "雫石",
      "zh_hans": "Shizukuishi"
    },
    "category": "normal",
    "lat": 39.689244,
    "lon": 140.974762,
    "geometry_seed": {
      "x": 1788,
      "y": 458
    },
    "latlon_status": "real",
    "latlon_source": "open-data-jp-railway-stations"
  },
  {
    "id": "TAZAWAKO",
    "name": "Tazawako",
    "names": {
      "en": "Tazawako",
      "ja": "田沢湖",
      "zh_hans": "Tazawako"
    },
    "category": "normal",
    "lat": 39.700363,
    "lon": 140.722139,
    "geometry_seed": {
      "x": 1718,
      "y": 508
    },
    "latlon_status": "real",
    "latlon_source": "open-data-jp-railway-stations"
  },
  {
    "id": "KAKUNODATE",
    "name": "Kakunodate",
    "names": {
      "en": "Kakunodate",
      "ja": "角館",
      "zh_hans": "Kakunodate"
    },
    "category": "normal",
    "lat": 39.591716,
    "lon": 140.570988,
    "geometry_seed": {
      "x": 1650,
      "y": 560
    },
    "latlon_status": "real",
    "latlon_source": "open-data-jp-railway-stations"
  },
  {
    "id": "OMAGARI",
    "name": "Omagari",
    "names": {
      "en": "Omagari",
      "ja": "大曲",
      "zh_hans": "Omagari"
    },
    "category": "hub",
    "lat": 39.465712,
    "lon": 140.479628,
    "geometry_seed": {
      "x": 1582,
      "y": 614
    },
    "latlon_status": "real",
    "latlon_source": "open-data-jp-railway-stations"
  },
  {
    "id": "AKITA",
    "name": "Akita",
    "names": {
      "en": "Akita",
      "ja": "秋田",
      "zh_hans": "Akita"
    },
    "category": "hub",
    "lat": 39.716748,
    "lon": 140.129931,
    "geometry_seed": {
      "x": 1514,
      "y": 668
    },
    "latlon_status": "real",
    "latlon_source": "open-data-jp-railway-stations"
  },
  {
    "id": "JOMO_KOGEN",
    "name": "Jomo-Kogen",
    "names": {
      "en": "Jomo-Kogen",
      "ja": "上毛高原",
      "zh_hans": "Jomo-Kogen"
    },
    "category": "normal",
    "lat": 36.69322222,
    "lon": 138.97761111,
    "geometry_seed": {
      "x": 1354,
      "y": 1340
    },
    "latlon_status": "real",
    "latlon_source": "ja.wikipedia.org"
  },
  {
    "id": "ECHIGO_YUZAWA",
    "name": "Echigo-Yuzawa",
    "names": {
      "en": "Echigo-Yuzawa",
      "ja": "越後湯沢",
      "zh_hans": "Echigo-Yuzawa"
    },
    "category": "hub",
    "lat": 36.935799,
    "lon": 138.809227,
    "geometry_seed": {
      "x": 1300,
      "y": 1286
    },
    "latlon_status": "real",
    "latlon_source": "open-data-jp-railway-stations"
  },
  {
    "id": "GALA_YUZAWA",
    "name": "Gala Yuzawa",
    "names": {
      "en": "Gala Yuzawa",
      "ja": "ガーラ湯沢",
      "zh_hans": "Gala Yuzawa"
    },
    "category": "normal",
    "lat": 36.95088889,
    "lon": 138.79952778,
    "geometry_seed": {
      "x": 1266,
      "y": 1240
    },
    "latlon_status": "real",
    "latlon_source": "ja.wikipedia.org"
  },
  {
    "id": "URASA",
    "name": "Urasa",
    "names": {
      "en": "Urasa",
      "ja": "浦佐",
      "zh_hans": "Urasa"
    },
    "category": "normal",
    "lat": 37.167488,
    "lon": 138.922798,
    "geometry_seed": {
      "x": 1246,
      "y": 1220
    },
    "latlon_status": "real",
    "latlon_source": "open-data-jp-railway-stations"
  },
  {
    "id": "NAGAOKA",
    "name": "Nagaoka",
    "names": {
      "en": "Nagaoka",
      "ja": "長岡",
      "zh_hans": "Nagaoka"
    },
    "category": "hub",
    "lat": 37.447787,
    "lon": 138.853927,
    "geometry_seed": {
      "x": 1192,
      "y": 1148
    },
    "latlon_status": "real",
    "latlon_source": "open-data-jp-railway-stations"
  },
  {
    "id": "TSUBAME_SANJO",
    "name": "Tsubame-Sanjo",
    "names": {
      "en": "Tsubame-Sanjo",
      "ja": "燕三条",
      "zh_hans": "Tsubame-Sanjo"
    },
    "category": "normal",
    "lat": 37.648824,
    "lon": 138.939274,
    "geometry_seed": {
      "x": 1136,
      "y": 1076
    },
    "latlon_status": "real",
    "latlon_source": "open-data-jp-railway-stations"
  },
  {
    "id": "NIIGATA",
    "name": "Niigata",
    "names": {
      "en": "Niigata",
      "ja": "新潟",
      "zh_hans": "Niigata"
    },
    "category": "hub",
    "lat": 37.912299,
    "lon": 139.060869,
    "geometry_seed": {
      "x": 1080,
      "y": 1004
    },
    "latlon_status": "real",
    "latlon_source": "open-data-jp-railway-stations"
  },
  {
    "id": "ANNAKA_HARUNA",
    "name": "Annaka-Haruna",
    "names": {
      "en": "Annaka-Haruna",
      "ja": "安中榛名",
      "zh_hans": "Annaka-Haruna"
    },
    "category": "normal",
    "lat": 36.36241667,
    "lon": 138.84958333,
    "geometry_seed": {
      "x": 1358,
      "y": 1450
    },
    "latlon_status": "real",
    "latlon_source": "ja.wikipedia.org"
  },
  {
    "id": "KARUIZAWA",
    "name": "Karuizawa",
    "names": {
      "en": "Karuizawa",
      "ja": "軽井沢",
      "zh_hans": "Karuizawa"
    },
    "category": "normal",
    "lat": 36.342889,
    "lon": 138.635096,
    "geometry_seed": {
      "x": 1292,
      "y": 1478
    },
    "latlon_status": "real",
    "latlon_source": "open-data-jp-railway-stations"
  },
  {
    "id": "SAKUDAIRA",
    "name": "Sakudaira",
    "names": {
      "en": "Sakudaira",
      "ja": "佐久平",
      "zh_hans": "Sakudaira"
    },
    "category": "normal",
    "lat": 36.277929,
    "lon": 138.464367,
    "geometry_seed": {
      "x": 1228,
      "y": 1508
    },
    "latlon_status": "real",
    "latlon_source": "open-data-jp-railway-stations"
  },
  {
    "id": "UEDA",
    "name": "Ueda",
    "names": {
      "en": "Ueda",
      "ja": "上田",
      "zh_hans": "Ueda"
    },
    "category": "normal",
    "lat": 36.396579,
    "lon": 138.249298,
    "geometry_seed": {
      "x": 1164,
      "y": 1538
    },
    "latlon_status": "real",
    "latlon_source": "open-data-jp-railway-stations"
  },
  {
    "id": "NAGANO",
    "name": "Nagano",
    "names": {
      "en": "Nagano",
      "ja": "長野",
      "zh_hans": "Nagano"
    },
    "category": "hub",
    "lat": 36.643307,
    "lon": 138.189101,
    "geometry_seed": {
      "x": 1100,
      "y": 1568
    },
    "latlon_status": "real",
    "latlon_source": "open-data-jp-railway-stations"
  },
  {
    "id": "IIYAMA",
    "name": "Iiyama",
    "names": {
      "en": "Iiyama",
      "ja": "飯山",
      "zh_hans": "Iiyama"
    },
    "category": "normal",
    "lat": 36.847642,
    "lon": 138.359335,
    "geometry_seed": {
      "x": 1034,
      "y": 1598
    },
    "latlon_status": "real",
    "latlon_source": "open-data-jp-railway-stations"
  },
  {
    "id": "JOETSUMYOKO",
    "name": "Joetsumyoko",
    "names": {
      "en": "Joetsumyoko",
      "ja": "上越妙高",
      "zh_hans": "Joetsumyoko"
    },
    "category": "hub",
    "lat": 37.081813,
    "lon": 138.249476,
    "geometry_seed": {
      "x": 968,
      "y": 1628
    },
    "latlon_status": "real",
    "latlon_source": "open-data-jp-railway-stations"
  },
  {
    "id": "ITOIGAWA",
    "name": "Itoigawa",
    "names": {
      "en": "Itoigawa",
      "ja": "糸魚川",
      "zh_hans": "Itoigawa"
    },
    "category": "normal",
    "lat": 37.043631,
    "lon": 137.861311,
    "geometry_seed": {
      "x": 900,
      "y": 1658
    },
    "latlon_status": "real",
    "latlon_source": "open-data-jp-railway-stations"
  },
  {
    "id": "KUROBE_UNAZUKIONSEN",
    "name": "Kurobe-Unazukionsen",
    "names": {
      "en": "Kurobe-Unazukionsen",
      "ja": "黒部宇奈月温泉",
      "zh_hans": "Kurobe-Unazukionsen"
    },
    "category": "normal",
    "lat": 36.87472222,
    "lon": 137.48222222,
    "geometry_seed": {
      "x": 832,
      "y": 1688
    },
    "latlon_status": "real",
    "latlon_source": "ja.wikipedia.org"
  },
  {
    "id": "TOYAMA",
    "name": "Toyama",
    "names": {
      "en": "Toyama",
      "ja": "富山",
      "zh_hans": "Toyama"
    },
    "category": "hub",
    "lat": 36.701384,
    "lon": 137.213091,
    "geometry_seed": {
      "x": 764,
      "y": 1718
    },
    "latlon_status": "real",
    "latlon_source": "open-data-jp-railway-stations"
  },
  {
    "id": "SHIN_TAKAOKA",
    "name": "Shin-Takaoka",
    "names": {
      "en": "Shin-Takaoka",
      "ja": "新高岡",
      "zh_hans": "Shin-Takaoka"
    },
    "category": "normal",
    "lat": 36.727004,
    "lon": 137.010459,
    "geometry_seed": {
      "x": 696,
      "y": 1748
    },
    "latlon_status": "real",
    "latlon_source": "open-data-jp-railway-stations"
  },
  {
    "id": "KANAZAWA",
    "name": "Kanazawa",
    "names": {
      "en": "Kanazawa",
      "ja": "金沢",
      "zh_hans": "Kanazawa"
    },
    "category": "hub",
    "lat": 36.578117,
    "lon": 136.648166,
    "geometry_seed": {
      "x": 628,
      "y": 1778
    },
    "latlon_status": "real",
    "latlon_source": "open-data-jp-railway-stations"
  },
  {
    "id": "KOMATSU",
    "name": "Komatsu",
    "names": {
      "en": "Komatsu",
      "ja": "小松",
      "zh_hans": "Komatsu"
    },
    "category": "normal",
    "lat": 36.402545,
    "lon": 136.452926,
    "geometry_seed": {
      "x": 560,
      "y": 1808
    },
    "latlon_status": "real",
    "latlon_source": "open-data-jp-railway-stations"
  },
  {
    "id": "KAGAONSEN",
    "name": "Kagaonsen",
    "names": {
      "en": "Kagaonsen",
      "ja": "加賀温泉",
      "zh_hans": "Kagaonsen"
    },
    "category": "normal",
    "lat": 36.320562,
    "lon": 136.350337,
    "geometry_seed": {
      "x": 492,
      "y": 1838
    },
    "latlon_status": "real",
    "latlon_source": "open-data-jp-railway-stations"
  },
  {
    "id": "AWARAONSEN",
    "name": "Awaraonsen",
    "names": {
      "en": "Awaraonsen",
      "ja": "芦原温泉",
      "zh_hans": "Awaraonsen"
    },
    "category": "normal",
    "lat": 36.214542,
    "lon": 136.235069,
    "geometry_seed": {
      "x": 424,
      "y": 1868
    },
    "latlon_status": "real",
    "latlon_source": "open-data-jp-railway-stations"
  },
  {
    "id": "FUKUI",
    "name": "Fukui",
    "names": {
      "en": "Fukui",
      "ja": "福井",
      "zh_hans": "Fukui"
    },
    "category": "hub",
    "lat": 36.062057,
    "lon": 136.223516,
    "geometry_seed": {
      "x": 356,
      "y": 1898
    },
    "latlon_status": "real",
    "latlon_source": "open-data-jp-railway-stations"
  },
  {
    "id": "ECHIZEN_TAKEFU",
    "name": "Echizen-Takefu",
    "names": {
      "en": "Echizen-Takefu",
      "ja": "越前たけふ",
      "zh_hans": "Echizen-Takefu"
    },
    "category": "normal",
    "lat": 35.89566667,
    "lon": 136.19888889,
    "geometry_seed": {
      "x": 288,
      "y": 1928
    },
    "latlon_status": "real",
    "latlon_source": "ja.wikipedia.org"
  },
  {
    "id": "TSURUGA",
    "name": "Tsuruga",
    "names": {
      "en": "Tsuruga",
      "ja": "敦賀",
      "zh_hans": "Tsuruga"
    },
    "category": "hub",
    "lat": 35.644767,
    "lon": 136.076488,
    "geometry_seed": {
      "x": 220,
      "y": 1958
    },
    "latlon_status": "real",
    "latlon_source": "open-data-jp-railway-stations"
  },
  {
    "id": "SHINAGAWA",
    "name": "Shinagawa",
    "names": {
      "en": "Shinagawa",
      "ja": "品川",
      "zh_hans": "Shinagawa"
    },
    "category": "hub",
    "lat": 35.62876,
    "lon": 139.738999,
    "geometry_seed": {
      "x": 1220,
      "y": 1790
    },
    "latlon_status": "real",
    "latlon_source": "open-data-jp-railway-stations"
  },
  {
    "id": "SHIN_YOKOHAMA",
    "name": "Shin-Yokohama",
    "names": {
      "en": "Shin-Yokohama",
      "ja": "新横浜",
      "zh_hans": "Shin-Yokohama"
    },
    "category": "hub",
    "lat": 35.506824,
    "lon": 139.617348,
    "geometry_seed": {
      "x": 1120,
      "y": 1790
    },
    "latlon_status": "real",
    "latlon_source": "open-data-jp-railway-stations"
  },
  {
    "id": "ODAWARA",
    "name": "Odawara",
    "names": {
      "en": "Odawara",
      "ja": "小田原",
      "zh_hans": "Odawara"
    },
    "category": "normal",
    "lat": 35.256225,
    "lon": 139.155772,
    "geometry_seed": {
      "x": 1030,
      "y": 1790
    },
    "latlon_status": "real",
    "latlon_source": "open-data-jp-railway-stations"
  },
  {
    "id": "ATAMI",
    "name": "Atami",
    "names": {
      "en": "Atami",
      "ja": "熱海",
      "zh_hans": "Atami"
    },
    "category": "normal",
    "lat": 35.103573,
    "lon": 139.077679,
    "geometry_seed": {
      "x": 948,
      "y": 1790
    },
    "latlon_status": "real",
    "latlon_source": "open-data-jp-railway-stations"
  },
  {
    "id": "MISHIMA",
    "name": "Mishima",
    "names": {
      "en": "Mishima",
      "ja": "三島",
      "zh_hans": "Mishima"
    },
    "category": "normal",
    "lat": 35.126253,
    "lon": 138.911133,
    "geometry_seed": {
      "x": 866,
      "y": 1790
    },
    "latlon_status": "real",
    "latlon_source": "open-data-jp-railway-stations"
  },
  {
    "id": "SHIN_FUJI",
    "name": "Shin-Fuji",
    "names": {
      "en": "Shin-Fuji",
      "ja": "新富士",
      "zh_hans": "Shin-Fuji"
    },
    "category": "normal",
    "lat": 35.142,
    "lon": 138.66336111,
    "geometry_seed": {
      "x": 784,
      "y": 1790
    },
    "latlon_status": "real",
    "latlon_source": "ja.wikipedia.org"
  },
  {
    "id": "SHIZUOKA",
    "name": "Shizuoka",
    "names": {
      "en": "Shizuoka",
      "ja": "静岡",
      "zh_hans": "Shizuoka"
    },
    "category": "hub",
    "lat": 34.971629,
    "lon": 138.388579,
    "geometry_seed": {
      "x": 700,
      "y": 1790
    },
    "latlon_status": "real",
    "latlon_source": "open-data-jp-railway-stations"
  },
  {
    "id": "KAKEGAWA",
    "name": "Kakegawa",
    "names": {
      "en": "Kakegawa",
      "ja": "掛川",
      "zh_hans": "Kakegawa"
    },
    "category": "normal",
    "lat": 34.769463,
    "lon": 138.014937,
    "geometry_seed": {
      "x": 620,
      "y": 1790
    },
    "latlon_status": "real",
    "latlon_source": "open-data-jp-railway-stations"
  },
  {
    "id": "HAMAMATSU",
    "name": "Hamamatsu",
    "names": {
      "en": "Hamamatsu",
      "ja": "浜松",
      "zh_hans": "Hamamatsu"
    },
    "category": "hub",
    "lat": 34.703866,
    "lon": 137.734759,
    "geometry_seed": {
      "x": 544,
      "y": 1790
    },
    "latlon_status": "real",
    "latlon_source": "open-data-jp-railway-stations"
  },
  {
    "id": "TOYOHASHI",
    "name": "Toyohashi",
    "names": {
      "en": "Toyohashi",
      "ja": "豊橋",
      "zh_hans": "Toyohashi"
    },
    "category": "normal",
    "lat": 34.762734,
    "lon": 137.382128,
    "geometry_seed": {
      "x": 472,
      "y": 1790
    },
    "latlon_status": "real",
    "latlon_source": "open-data-jp-railway-stations"
  },
  {
    "id": "MIKAWA_ANJO",
    "name": "Mikawa-Anjo",
    "names": {
      "en": "Mikawa-Anjo",
      "ja": "三河安城",
      "zh_hans": "Mikawa-Anjo"
    },
    "category": "normal",
    "lat": 34.96968,
    "lon": 137.060918,
    "geometry_seed": {
      "x": 404,
      "y": 1790
    },
    "latlon_status": "real",
    "latlon_source": "open-data-jp-railway-stations"
  },
  {
    "id": "NAGOYA",
    "name": "Nagoya",
    "names": {
      "en": "Nagoya",
      "ja": "名古屋",
      "zh_hans": "Nagoya"
    },
    "category": "hub",
    "lat": 35.170694,
    "lon": 136.881637,
    "geometry_seed": {
      "x": 336,
      "y": 1790
    },
    "latlon_status": "real",
    "latlon_source": "open-data-jp-railway-stations"
  },
  {
    "id": "GIFU_HASHIMA",
    "name": "Gifu-Hashima",
    "names": {
      "en": "Gifu-Hashima",
      "ja": "岐阜羽島",
      "zh_hans": "Gifu-Hashima"
    },
    "category": "normal",
    "lat": 35.31583333,
    "lon": 136.68555556,
    "geometry_seed": {
      "x": 268,
      "y": 1790
    },
    "latlon_status": "real",
    "latlon_source": "ja.wikipedia.org"
  },
  {
    "id": "MAIBARA",
    "name": "Maibara",
    "names": {
      "en": "Maibara",
      "ja": "米原",
      "zh_hans": "Maibara"
    },
    "category": "hub",
    "lat": 35.314657,
    "lon": 136.289992,
    "geometry_seed": {
      "x": 200,
      "y": 1790
    },
    "latlon_status": "real",
    "latlon_source": "open-data-jp-railway-stations"
  },
  {
    "id": "KYOTO",
    "name": "Kyoto",
    "names": {
      "en": "Kyoto",
      "ja": "京都",
      "zh_hans": "Kyoto"
    },
    "category": "hub",
    "lat": 34.985465,
    "lon": 135.757748,
    "geometry_seed": {
      "x": 130,
      "y": 1790
    },
    "latlon_status": "real",
    "latlon_source": "open-data-jp-railway-stations"
  },
  {
    "id": "SHIN_OSAKA",
    "name": "Shin-Osaka",
    "names": {
      "en": "Shin-Osaka",
      "ja": "新大阪",
      "zh_hans": "Shin-Osaka"
    },
    "category": "hub",
    "lat": 34.734136,
    "lon": 135.501852,
    "geometry_seed": {
      "x": 58,
      "y": 1790
    },
    "latlon_status": "real",
    "latlon_source": "open-data-jp-railway-stations"
  },
  {
    "id": "SHIN_KOBE",
    "name": "Shin-Kobe",
    "names": {
      "en": "Shin-Kobe",
      "ja": "新神戸",
      "zh_hans": "Shin-Kobe"
    },
    "category": "hub",
    "lat": 34.706417,
    "lon": 135.195758,
    "geometry_seed": {
      "x": -16,
      "y": 1790
    },
    "latlon_status": "real",
    "latlon_source": "open-data-jp-railway-stations"
  },
  {
    "id": "NISHI_AKASHI",
    "name": "Nishi-Akashi",
    "names": {
      "en": "Nishi-Akashi",
      "ja": "西明石",
      "zh_hans": "Nishi-Akashi"
    },
    "category": "normal",
    "lat": 34.66591,
    "lon": 134.960151,
    "geometry_seed": {
      "x": -90,
      "y": 1790
    },
    "latlon_status": "real",
    "latlon_source": "open-data-jp-railway-stations"
  },
  {
    "id": "HIMEJI",
    "name": "Himeji",
    "names": {
      "en": "Himeji",
      "ja": "姫路",
      "zh_hans": "Himeji"
    },
    "category": "hub",
    "lat": 34.827659,
    "lon": 134.690769,
    "geometry_seed": {
      "x": -164,
      "y": 1790
    },
    "latlon_status": "real",
    "latlon_source": "open-data-jp-railway-stations"
  },
  {
    "id": "AIOI",
    "name": "Aioi",
    "names": {
      "en": "Aioi",
      "ja": "相生",
      "zh_hans": "Aioi"
    },
    "category": "normal",
    "lat": 34.818052,
    "lon": 134.47341,
    "geometry_seed": {
      "x": -238,
      "y": 1790
    },
    "latlon_status": "real",
    "latlon_source": "open-data-jp-railway-stations"
  },
  {
    "id": "OKAYAMA",
    "name": "Okayama",
    "names": {
      "en": "Okayama",
      "ja": "岡山",
      "zh_hans": "Okayama"
    },
    "category": "hub",
    "lat": 34.666572,
    "lon": 133.918552,
    "geometry_seed": {
      "x": -312,
      "y": 1790
    },
    "latlon_status": "real",
    "latlon_source": "open-data-jp-railway-stations"
  },
  {
    "id": "SHIN_KURASHIKI",
    "name": "Shin-Kurashiki",
    "names": {
      "en": "Shin-Kurashiki",
      "ja": "新倉敷",
      "zh_hans": "Shin-Kurashiki"
    },
    "category": "normal",
    "lat": 34.56509,
    "lon": 133.678344,
    "geometry_seed": {
      "x": -386,
      "y": 1790
    },
    "latlon_status": "real",
    "latlon_source": "open-data-jp-railway-stations"
  },
  {
    "id": "FUKUYAMA",
    "name": "Fukuyama",
    "names": {
      "en": "Fukuyama",
      "ja": "福山",
      "zh_hans": "Fukuyama"
    },
    "category": "hub",
    "lat": 34.489291,
    "lon": 133.361429,
    "geometry_seed": {
      "x": -460,
      "y": 1790
    },
    "latlon_status": "real",
    "latlon_source": "open-data-jp-railway-stations"
  },
  {
    "id": "SHIN_ONOMICHI",
    "name": "Shin-Onomichi",
    "names": {
      "en": "Shin-Onomichi",
      "ja": "新尾道",
      "zh_hans": "Shin-Onomichi"
    },
    "category": "normal",
    "lat": 34.43008333,
    "lon": 133.19033333,
    "geometry_seed": {
      "x": -534,
      "y": 1790
    },
    "latlon_status": "real",
    "latlon_source": "ja.wikipedia.org"
  },
  {
    "id": "MIHARA",
    "name": "Mihara",
    "names": {
      "en": "Mihara",
      "ja": "三原",
      "zh_hans": "Mihara"
    },
    "category": "normal",
    "lat": 34.400486,
    "lon": 133.083049,
    "geometry_seed": {
      "x": -608,
      "y": 1790
    },
    "latlon_status": "real",
    "latlon_source": "open-data-jp-railway-stations"
  },
  {
    "id": "HIGASHI_HIROSHIMA",
    "name": "Higashi-Hiroshima",
    "names": {
      "en": "Higashi-Hiroshima",
      "ja": "東広島",
      "zh_hans": "Higashi-Hiroshima"
    },
    "category": "normal",
    "lat": 34.38936111,
    "lon": 132.75977778,
    "geometry_seed": {
      "x": -682,
      "y": 1790
    },
    "latlon_status": "real",
    "latlon_source": "ja.wikipedia.org"
  },
  {
    "id": "HIROSHIMA",
    "name": "Hiroshima",
    "names": {
      "en": "Hiroshima",
      "ja": "広島",
      "zh_hans": "Hiroshima"
    },
    "category": "hub",
    "lat": 34.397446,
    "lon": 132.475593,
    "geometry_seed": {
      "x": -756,
      "y": 1790
    },
    "latlon_status": "real",
    "latlon_source": "open-data-jp-railway-stations"
  },
  {
    "id": "SHIN_IWAKUNI",
    "name": "Shin-Iwakuni",
    "names": {
      "en": "Shin-Iwakuni",
      "ja": "清流新岩国",
      "zh_hans": "Shin-Iwakuni"
    },
    "category": "normal",
    "lat": 34.162639,
    "lon": 132.14764,
    "geometry_seed": {
      "x": -830,
      "y": 1790
    },
    "latlon_status": "real",
    "latlon_source": "open-data-jp-railway-stations"
  },
  {
    "id": "TOKUYAMA",
    "name": "Tokuyama",
    "names": {
      "en": "Tokuyama",
      "ja": "徳山",
      "zh_hans": "Tokuyama"
    },
    "category": "hub",
    "lat": 34.051555,
    "lon": 131.8029,
    "geometry_seed": {
      "x": -904,
      "y": 1790
    },
    "latlon_status": "real",
    "latlon_source": "open-data-jp-railway-stations"
  },
  {
    "id": "SHIN_YAMAGUCHI",
    "name": "Shin-Yamaguchi",
    "names": {
      "en": "Shin-Yamaguchi",
      "ja": "新山口",
      "zh_hans": "Shin-Yamaguchi"
    },
    "category": "hub",
    "lat": 34.093255,
    "lon": 131.39657,
    "geometry_seed": {
      "x": -978,
      "y": 1790
    },
    "latlon_status": "real",
    "latlon_source": "open-data-jp-railway-stations"
  },
  {
    "id": "ASA",
    "name": "Asa",
    "names": {
      "en": "Asa",
      "ja": "厚狭",
      "zh_hans": "Asa"
    },
    "category": "normal",
    "lat": 34.053361,
    "lon": 131.159965,
    "geometry_seed": {
      "x": -1052,
      "y": 1790
    },
    "latlon_status": "real",
    "latlon_source": "open-data-jp-railway-stations"
  },
  {
    "id": "SHIN_SHIMONOSEKI",
    "name": "Shin-Shimonoseki",
    "names": {
      "en": "Shin-Shimonoseki",
      "ja": "新下関",
      "zh_hans": "Shin-Shimonoseki"
    },
    "category": "hub",
    "lat": 34.005651,
    "lon": 130.948021,
    "geometry_seed": {
      "x": -1126,
      "y": 1790
    },
    "latlon_status": "real",
    "latlon_source": "open-data-jp-railway-stations"
  },
  {
    "id": "KOKURA",
    "name": "Kokura",
    "names": {
      "en": "Kokura",
      "ja": "小倉",
      "zh_hans": "Kokura"
    },
    "category": "hub",
    "lat": 33.886756,
    "lon": 130.882678,
    "geometry_seed": {
      "x": -1200,
      "y": 1790
    },
    "latlon_status": "real",
    "latlon_source": "open-data-jp-railway-stations"
  },
  {
    "id": "HAKATA",
    "name": "Hakata",
    "names": {
      "en": "Hakata",
      "ja": "博多",
      "zh_hans": "Hakata"
    },
    "category": "hub",
    "lat": 33.590002,
    "lon": 130.420622,
    "geometry_seed": {
      "x": -1274,
      "y": 1790
    },
    "latlon_status": "real",
    "latlon_source": "open-data-jp-railway-stations"
  },
  {
    "id": "SHIN_TOSU",
    "name": "Shin-Tosu",
    "names": {
      "en": "Shin-Tosu",
      "ja": "新鳥栖",
      "zh_hans": "Shin-Tosu"
    },
    "category": "hub",
    "lat": 33.370278,
    "lon": 130.491111,
    "geometry_seed": {
      "x": -1262,
      "y": 1856
    },
    "latlon_status": "real",
    "latlon_source": "open-data-jp-railway-stations"
  },
  {
    "id": "KURUME",
    "name": "Kurume",
    "names": {
      "en": "Kurume",
      "ja": "久留米",
      "zh_hans": "Kurume"
    },
    "category": "hub",
    "lat": 33.319778,
    "lon": 130.501408,
    "geometry_seed": {
      "x": -1252,
      "y": 1912
    },
    "latlon_status": "real",
    "latlon_source": "open-data-jp-railway-stations"
  },
  {
    "id": "CHIKUGO_FUNAGOYA",
    "name": "Chikugo-Funagoya",
    "names": {
      "en": "Chikugo-Funagoya",
      "ja": "筑後船小屋",
      "zh_hans": "Chikugo-Funagoya"
    },
    "category": "normal",
    "lat": 33.17802332986661,
    "lon": 130.49160361289978,
    "geometry_seed": {
      "x": -1242,
      "y": 1968
    },
    "latlon_status": "real",
    "latlon_source": "open-data-jp-railway-stations"
  },
  {
    "id": "SHIN_OMUTA",
    "name": "Shin-Omuta",
    "names": {
      "en": "Shin-Omuta",
      "ja": "新大牟田",
      "zh_hans": "Shin-Omuta"
    },
    "category": "normal",
    "lat": 33.07125,
    "lon": 130.48875,
    "geometry_seed": {
      "x": -1232,
      "y": 2024
    },
    "latlon_status": "real",
    "latlon_source": "ja.wikipedia.org"
  },
  {
    "id": "SHIN_TAMANA",
    "name": "Shin-Tamana",
    "names": {
      "en": "Shin-Tamana",
      "ja": "新玉名",
      "zh_hans": "Shin-Tamana"
    },
    "category": "normal",
    "lat": 32.9425,
    "lon": 130.57355556,
    "geometry_seed": {
      "x": -1222,
      "y": 2080
    },
    "latlon_status": "real",
    "latlon_source": "ja.wikipedia.org"
  },
  {
    "id": "KUMAMOTO",
    "name": "Kumamoto",
    "names": {
      "en": "Kumamoto",
      "ja": "熊本",
      "zh_hans": "Kumamoto"
    },
    "category": "hub",
    "lat": 32.789207,
    "lon": 130.688499,
    "geometry_seed": {
      "x": -1212,
      "y": 2136
    },
    "latlon_status": "real",
    "latlon_source": "open-data-jp-railway-stations"
  },
  {
    "id": "SHIN_YATSUSHIRO",
    "name": "Shin-Yatsushiro",
    "names": {
      "en": "Shin-Yatsushiro",
      "ja": "新八代",
      "zh_hans": "Shin-Yatsushiro"
    },
    "category": "hub",
    "lat": 32.517888,
    "lon": 130.634919,
    "geometry_seed": {
      "x": -1202,
      "y": 2192
    },
    "latlon_status": "real",
    "latlon_source": "open-data-jp-railway-stations"
  },
  {
    "id": "SHIN_MINAMATA",
    "name": "Shin-Minamata",
    "names": {
      "en": "Shin-Minamata",
      "ja": "新水俣",
      "zh_hans": "Shin-Minamata"
    },
    "category": "normal",
    "lat": 32.210825,
    "lon": 130.428893,
    "geometry_seed": {
      "x": -1192,
      "y": 2248
    },
    "latlon_status": "real",
    "latlon_source": "open-data-jp-railway-stations"
  },
  {
    "id": "IZUMI",
    "name": "Izumi",
    "names": {
      "en": "Izumi",
      "ja": "出水",
      "zh_hans": "Izumi"
    },
    "category": "normal",
    "lat": 32.089275,
    "lon": 130.357803,
    "geometry_seed": {
      "x": -1182,
      "y": 2304
    },
    "latlon_status": "real",
    "latlon_source": "open-data-jp-railway-stations"
  },
  {
    "id": "SENDAI_KYUSHU",
    "name": "Sendai",
    "names": {
      "en": "Sendai",
      "ja": "川内",
      "zh_hans": "Sendai"
    },
    "category": "hub",
    "lat": 31.813726,
    "lon": 130.31213,
    "geometry_seed": {
      "x": -1172,
      "y": 2360
    },
    "latlon_status": "real",
    "latlon_source": "open-data-jp-railway-stations"
  },
  {
    "id": "KAGOSHIMA_CHUO",
    "name": "Kagoshima-Chuo",
    "names": {
      "en": "Kagoshima-Chuo",
      "ja": "鹿児島中央",
      "zh_hans": "Kagoshima-Chuo"
    },
    "category": "hub",
    "lat": 31.583727,
    "lon": 130.541789,
    "geometry_seed": {
      "x": -1162,
      "y": 2416
    },
    "latlon_status": "real",
    "latlon_source": "open-data-jp-railway-stations"
  },
  {
    "id": "TAKEO_ONSEN",
    "name": "Takeo-Onsen",
    "names": {
      "en": "Takeo-Onsen",
      "ja": "武雄温泉",
      "zh_hans": "Takeo-Onsen"
    },
    "category": "hub",
    "lat": 33.196151,
    "lon": 130.022322,
    "geometry_seed": {
      "x": -1340,
      "y": 1832
    },
    "latlon_status": "real",
    "latlon_source": "open-data-jp-railway-stations"
  },
  {
    "id": "URESHINO_ONSEN",
    "name": "Ureshino-Onsen",
    "names": {
      "en": "Ureshino-Onsen",
      "ja": "嬉野温泉",
      "zh_hans": "Ureshino-Onsen"
    },
    "category": "normal",
    "lat": 33.10655556,
    "lon": 129.99897222,
    "geometry_seed": {
      "x": -1420,
      "y": 1784
    },
    "latlon_status": "real",
    "latlon_source": "ja.wikipedia.org"
  },
  {
    "id": "SHIN_OMURA",
    "name": "Shin-Omura",
    "names": {
      "en": "Shin-Omura",
      "ja": "新大村",
      "zh_hans": "Shin-Omura"
    },
    "category": "normal",
    "lat": 32.93277778,
    "lon": 129.95694444,
    "geometry_seed": {
      "x": -1498,
      "y": 1736
    },
    "latlon_status": "real",
    "latlon_source": "ja.wikipedia.org"
  },
  {
    "id": "ISAHAYA",
    "name": "Isahaya",
    "names": {
      "en": "Isahaya",
      "ja": "諫早",
      "zh_hans": "Isahaya"
    },
    "category": "hub",
    "lat": 32.851018,
    "lon": 130.041596,
    "geometry_seed": {
      "x": -1538,
      "y": 1712
    },
    "latlon_status": "real",
    "latlon_source": "open-data-jp-railway-stations"
  },
  {
    "id": "NAGASAKI",
    "name": "Nagasaki",
    "names": {
      "en": "Nagasaki",
      "ja": "長崎",
      "zh_hans": "Nagasaki"
    },
    "category": "hub",
    "lat": 32.75275,
    "lon": 129.86905556,
    "geometry_seed": {
      "x": -1578,
      "y": 1688
    },
    "latlon_status": "real",
    "latlon_source": "ja.wikipedia.org"
  }
]
