{
  "くりこま高原": {
    "title": "くりこま高原駅",
    "lat": 38.74913611,
    "lon": 141.0718,
    "source": "ja.wikipedia.org"
  },
  "ガーラ湯沢": {
    "title": "ガーラ湯沢駅",
    "lat": 36.95088889,
    "lon": 138.79952778,
    "source": "ja.wikipedia.org"
  },
  "七戸十和田": {
    "title": "七戸十和田駅",
    "lat": 40.71986111,
    "lon": 141.15402778,
    "source": "ja.wikipedia.org"
  },
  "上毛高原": {
    "title": "上毛高原駅",
    "lat": 36.69322222,
    "lon": 138.97761111,
    "source": "ja.wikipedia.org"
  },
  "奥津軽いまべつ": {
    "title": "奥津軽いまべつ駅",
    "lat": 41.14508333,
    "lon": 140.51544444,
    "source": "ja.wikipedia.org"
  },
  "嬉野温泉": {
    "title": "嬉野温泉駅",
    "lat": 33.10655556,
    "lon": 129.99897222,
    "source": "ja.wikipedia.org"
  },
  "安中榛名": {
    "title": "安中榛名駅",
    "lat": 36.36241667,
    "lon": 138.84958333,
    "source": "ja.wikipedia.org"
  },
  "岐阜羽島": {
    "title": "岐阜羽島駅",
    "lat": 35.31583333,
    "lon": 136.68555556,
    "source": "ja.wikipedia.org"
  },
  "新大村": {
    "title": "新大村駅",
    "lat": 32.93277778,
    "lon": 129.95694444,
    "source": "ja.wikipedia.org"
  },
  "新大牟田": {
    "title": "新大牟田駅",
    "lat": 33.07125,
    "lon": 130.48875,
    "source": "ja.wikipedia.org"
  },
  "新尾道": {
    "title": "新尾道駅",
    "lat": 34.43008333,
    "lon": 133.19033333,
    "source": "ja.wikipedia.org"
  },
  "新玉名": {
    "title": "新玉名駅",
    "lat": 32.9425,
    "lon": 130.57355556,
    "source": "ja.wikipedia.org"
  },
  "本庄早稲田": {
    "title": "本庄早稲田駅",
    "lat": 36.21883333,
    "lon": 139.1795,
    "source": "ja.wikipedia.org"
  },
  "東広島": {
    "title": "東広島駅",
    "lat": 34.38936111,
    "lon": 132.75977778,
    "source": "ja.wikipedia.org"
  },
  "水沢江刺": {
    "title": "水沢江刺駅",
    "lat": 39.145325,
    "lon": 141.18873333,
    "source": "ja.wikipedia.org"
  },
  "白石蔵王": {
    "title": "白石蔵王駅",
    "lat": 37.99554444,
    "lon": 140.63308611,
    "source": "ja.wikipedia.org"
  },
  "越前たけふ": {
    "title": "越前たけふ駅",
    "lat": 35.89566667,
    "lon": 136.19888889,
    "source": "ja.wikipedia.org"
  },
  "長崎": {
    "title": "長崎駅",
    "lat": 32.75275,
    "lon": 129.86905556,
    "source": "ja.wikipedia.org"
  },
  "黒部宇奈月温泉": {
    "title": "黒部宇奈月温泉駅",
    "lat": 36.87472222,
    "lon": 137.48222222,
    "source": "ja.wikipedia.org"
  }
}
