{
  "version": "0.1.0",
  "generatedAt": "2026-04-06T00:00:00Z",
  "metadata": {
    "label": "OniChase v3 nationwide Shinkansen pilot bundle",
    "sourceVersion": "v2-shinkansen-upgrade",
    "notes": [
      "First v3 pilot bundle built from existing nationwide Shinkansen data.",
      "Station groups remain one-to-one with physical stations in this pilot.",
      "Service geometry is route-family based and multi-scale ready."
    ]
  },
  "physicalStations": [
    {
      "id": "PS_TOKYO",
      "name": "Tokyo",
      "names": {
        "en": "Tokyo",
        "ja": "東京",
        "zh_hans": "Tokyo"
      },
      "operatorIds": [],
      "lat": 35.681391,
      "lon": 139.766103,
      "sourceStopIds": [
        "TOKYO"
      ],
      "stationGroupId": "SG_TOKYO",
      "tags": [
        "hub",
        "shinkansen"
      ]
    },
    {
      "id": "PS_UENO",
      "name": "Ueno",
      "names": {
        "en": "Ueno",
        "ja": "上野",
        "zh_hans": "Ueno"
      },
      "operatorIds": [],
      "lat": 35.71379,
      "lon": 139.777043,
      "sourceStopIds": [
        "UENO"
      ],
      "stationGroupId": "SG_UENO",
      "tags": [
        "hub",
        "shinkansen"
      ]
    },
    {
      "id": "PS_OMIYA",
      "name": "Omiya",
      "names": {
        "en": "Omiya",
        "ja": "大宮",
        "zh_hans": "Omiya"
      },
      "operatorIds": [],
      "lat": 35.906439,
      "lon": 139.62405,
      "sourceStopIds": [
        "OMIYA"
      ],
      "stationGroupId": "SG_OMIYA",
      "tags": [
        "hub",
        "shinkansen"
      ]
    },
    {
      "id": "PS_KUMAGAYA",
      "name": "Kumagaya",
      "names": {
        "en": "Kumagaya",
        "ja": "熊谷",
        "zh_hans": "Kumagaya"
      },
      "operatorIds": [],
      "lat": 36.139627,
      "lon": 139.389528,
      "sourceStopIds": [
        "KUMAGAYA"
      ],
      "stationGroupId": "SG_KUMAGAYA",
      "tags": [
        "normal",
        "shinkansen"
      ]
    },
    {
      "id": "PS_HONJO_WASEDA",
      "name": "Honjo-Waseda",
      "names": {
        "en": "Honjo-Waseda",
        "ja": "本庄早稲田",
        "zh_hans": "Honjo-Waseda"
      },
      "operatorIds": [],
      "lat": 36.21883333,
      "lon": 139.1795,
      "sourceStopIds": [
        "HONJO_WASEDA"
      ],
      "stationGroupId": "SG_HONJO_WASEDA",
      "tags": [
        "normal",
        "shinkansen"
      ]
    },
    {
      "id": "PS_TAKASAKI",
      "name": "Takasaki",
      "names": {
        "en": "Takasaki",
        "ja": "高崎",
        "zh_hans": "Takasaki"
      },
      "operatorIds": [],
      "lat": 36.322239,
      "lon": 139.012354,
      "sourceStopIds": [
        "TAKASAKI"
      ],
      "stationGroupId": "SG_TAKASAKI",
      "tags": [
        "hub",
        "shinkansen"
      ]
    },
    {
      "id": "PS_OYAMA",
      "name": "Oyama",
      "names": {
        "en": "Oyama",
        "ja": "小山",
        "zh_hans": "Oyama"
      },
      "operatorIds": [],
      "lat": 36.312747,
      "lon": 139.806241,
      "sourceStopIds": [
        "OYAMA"
      ],
      "stationGroupId": "SG_OYAMA",
      "tags": [
        "normal",
        "shinkansen"
      ]
    },
    {
      "id": "PS_UTSUNOMIYA",
      "name": "Utsunomiya",
      "names": {
        "en": "Utsunomiya",
        "ja": "宇都宮",
        "zh_hans": "Utsunomiya"
      },
      "operatorIds": [],
      "lat": 36.559246,
      "lon": 139.898389,
      "sourceStopIds": [
        "UTSUNOMIYA"
      ],
      "stationGroupId": "SG_UTSUNOMIYA",
      "tags": [
        "normal",
        "shinkansen"
      ]
    },
    {
      "id": "PS_NASUSHIOBARA",
      "name": "Nasushiobara",
      "names": {
        "en": "Nasushiobara",
        "ja": "那須塩原",
        "zh_hans": "Nasushiobara"
      },
      "operatorIds": [],
      "lat": 36.931956,
      "lon": 140.020694,
      "sourceStopIds": [
        "NASUSHIOBARA"
      ],
      "stationGroupId": "SG_NASUSHIOBARA",
      "tags": [
        "normal",
        "shinkansen"
      ]
    },
    {
      "id": "PS_SHIN_SHIRAKAWA",
      "name": "Shin-Shirakawa",
      "names": {
        "en": "Shin-Shirakawa",
        "ja": "新白河",
        "zh_hans": "Shin-Shirakawa"
      },
      "operatorIds": [],
      "lat": 37.12331,
      "lon": 140.188969,
      "sourceStopIds": [
        "SHIN_SHIRAKAWA"
      ],
      "stationGroupId": "SG_SHIN_SHIRAKAWA",
      "tags": [
        "normal",
        "shinkansen"
      ]
    },
    {
      "id": "PS_KORIYAMA",
      "name": "Koriyama",
      "names": {
        "en": "Koriyama",
        "ja": "郡山",
        "zh_hans": "Koriyama"
      },
      "operatorIds": [],
      "lat": 37.398187,
      "lon": 140.389363,
      "sourceStopIds": [
        "KORIYAMA"
      ],
      "stationGroupId": "SG_KORIYAMA",
      "tags": [
        "normal",
        "shinkansen"
      ]
    },
    {
      "id": "PS_FUKUSHIMA",
      "name": "Fukushima",
      "names": {
        "en": "Fukushima",
        "ja": "福島",
        "zh_hans": "Fukushima"
      },
      "operatorIds": [],
      "lat": 37.754123,
      "lon": 140.45968,
      "sourceStopIds": [
        "FUKUSHIMA"
      ],
      "stationGroupId": "SG_FUKUSHIMA",
      "tags": [
        "hub",
        "shinkansen"
      ]
    },
    {
      "id": "PS_SHIROISHI_ZAO",
      "name": "Shiroishi-Zao",
      "names": {
        "en": "Shiroishi-Zao",
        "ja": "白石蔵王",
        "zh_hans": "Shiroishi-Zao"
      },
      "operatorIds": [],
      "lat": 37.99554444,
      "lon": 140.63308611,
      "sourceStopIds": [
        "SHIROISHI_ZAO"
      ],
      "stationGroupId": "SG_SHIROISHI_ZAO",
      "tags": [
        "normal",
        "shinkansen"
      ]
    },
    {
      "id": "PS_SENDAI_TOHOKU",
      "name": "Sendai",
      "names": {
        "en": "Sendai",
        "ja": "仙台",
        "zh_hans": "Sendai"
      },
      "operatorIds": [],
      "lat": 38.260749,
      "lon": 140.878514,
      "sourceStopIds": [
        "SENDAI_TOHOKU"
      ],
      "stationGroupId": "SG_SENDAI_TOHOKU",
      "tags": [
        "hub",
        "shinkansen"
      ]
    },
    {
      "id": "PS_FURUKAWA",
      "name": "Furukawa",
      "names": {
        "en": "Furukawa",
        "ja": "古川",
        "zh_hans": "Furukawa"
      },
      "operatorIds": [],
      "lat": 38.571192,
      "lon": 140.967876,
      "sourceStopIds": [
        "FURUKAWA"
      ],
      "stationGroupId": "SG_FURUKAWA",
      "tags": [
        "normal",
        "shinkansen"
      ]
    },
    {
      "id": "PS_KURIKOMA_KOGEN",
      "name": "Kurikoma-Kogen",
      "names": {
        "en": "Kurikoma-Kogen",
        "ja": "くりこま高原",
        "zh_hans": "Kurikoma-Kogen"
      },
      "operatorIds": [],
      "lat": 38.74913611,
      "lon": 141.0718,
      "sourceStopIds": [
        "KURIKOMA_KOGEN"
      ],
      "stationGroupId": "SG_KURIKOMA_KOGEN",
      "tags": [
        "normal",
        "shinkansen"
      ]
    },
    {
      "id": "PS_ICHINOSEKI",
      "name": "Ichinoseki",
      "names": {
        "en": "Ichinoseki",
        "ja": "一ノ関",
        "zh_hans": "Ichinoseki"
      },
      "operatorIds": [],
      "lat": 38.926514,
      "lon": 141.138177,
      "sourceStopIds": [
        "ICHINOSEKI"
      ],
      "stationGroupId": "SG_ICHINOSEKI",
      "tags": [
        "normal",
        "shinkansen"
      ]
    },
    {
      "id": "PS_MIZUSAWA_ESASHI",
      "name": "Mizusawa-Esashi",
      "names": {
        "en": "Mizusawa-Esashi",
        "ja": "水沢江刺",
        "zh_hans": "Mizusawa-Esashi"
      },
      "operatorIds": [],
      "lat": 39.145325,
      "lon": 141.18873333,
      "sourceStopIds": [
        "MIZUSAWA_ESASHI"
      ],
      "stationGroupId": "SG_MIZUSAWA_ESASHI",
      "tags": [
        "normal",
        "shinkansen"
      ]
    },
    {
      "id": "PS_KITAKAMI",
      "name": "Kitakami",
      "names": {
        "en": "Kitakami",
        "ja": "北上",
        "zh_hans": "Kitakami"
      },
      "operatorIds": [],
      "lat": 39.281196,
      "lon": 141.121221,
      "sourceStopIds": [
        "KITAKAMI"
      ],
      "stationGroupId": "SG_KITAKAMI",
      "tags": [
        "normal",
        "shinkansen"
      ]
    },
    {
      "id": "PS_SHIN_HANAMAKI",
      "name": "Shin-Hanamaki",
      "names": {
        "en": "Shin-Hanamaki",
        "ja": "新花巻",
        "zh_hans": "Shin-Hanamaki"
      },
      "operatorIds": [],
      "lat": 39.405839,
      "lon": 141.17302,
      "sourceStopIds": [
        "SHIN_HANAMAKI"
      ],
      "stationGroupId": "SG_SHIN_HANAMAKI",
      "tags": [
        "normal",
        "shinkansen"
      ]
    },
    {
      "id": "PS_MORIOKA",
      "name": "Morioka",
      "names": {
        "en": "Morioka",
        "ja": "盛岡",
        "zh_hans": "Morioka"
      },
      "operatorIds": [],
      "lat": 39.701547,
      "lon": 141.136599,
      "sourceStopIds": [
        "MORIOKA"
      ],
      "stationGroupId": "SG_MORIOKA",
      "tags": [
        "hub",
        "shinkansen"
      ]
    },
    {
      "id": "PS_IWATE_NUMAKUNAI",
      "name": "Iwate-Numakunai",
      "names": {
        "en": "Iwate-Numakunai",
        "ja": "いわて沼宮内",
        "zh_hans": "Iwate-Numakunai"
      },
      "operatorIds": [],
      "lat": 39.960155,
      "lon": 141.216955,
      "sourceStopIds": [
        "IWATE_NUMAKUNAI"
      ],
      "stationGroupId": "SG_IWATE_NUMAKUNAI",
      "tags": [
        "normal",
        "shinkansen"
      ]
    },
    {
      "id": "PS_NINOHE",
      "name": "Ninohe",
      "names": {
        "en": "Ninohe",
        "ja": "二戸",
        "zh_hans": "Ninohe"
      },
      "operatorIds": [],
      "lat": 40.25997,
      "lon": 141.286211,
      "sourceStopIds": [
        "NINOHE"
      ],
      "stationGroupId": "SG_NINOHE",
      "tags": [
        "normal",
        "shinkansen"
      ]
    },
    {
      "id": "PS_HACHINOHE",
      "name": "Hachinohe",
      "names": {
        "en": "Hachinohe",
        "ja": "八戸",
        "zh_hans": "Hachinohe"
      },
      "operatorIds": [],
      "lat": 40.5092,
      "lon": 141.431499,
      "sourceStopIds": [
        "HACHINOHE"
      ],
      "stationGroupId": "SG_HACHINOHE",
      "tags": [
        "normal",
        "shinkansen"
      ]
    },
    {
      "id": "PS_SHICHINOHE_TOWADA",
      "name": "Shichinohe-Towada",
      "names": {
        "en": "Shichinohe-Towada",
        "ja": "七戸十和田",
        "zh_hans": "Shichinohe-Towada"
      },
      "operatorIds": [],
      "lat": 40.71986111,
      "lon": 141.15402778,
      "sourceStopIds": [
        "SHICHINOHE_TOWADA"
      ],
      "stationGroupId": "SG_SHICHINOHE_TOWADA",
      "tags": [
        "normal",
        "shinkansen"
      ]
    },
    {
      "id": "PS_SHIN_AOMORI",
      "name": "Shin-Aomori",
      "names": {
        "en": "Shin-Aomori",
        "ja": "新青森",
        "zh_hans": "Shin-Aomori"
      },
      "operatorIds": [],
      "lat": 40.8275,
      "lon": 140.693472,
      "sourceStopIds": [
        "SHIN_AOMORI"
      ],
      "stationGroupId": "SG_SHIN_AOMORI",
      "tags": [
        "hub",
        "shinkansen"
      ]
    },
    {
      "id": "PS_OKU_TSUGARU_IMABETSU",
      "name": "Oku-Tsugaru-Imabetsu",
      "names": {
        "en": "Oku-Tsugaru-Imabetsu",
        "ja": "奥津軽いまべつ",
        "zh_hans": "Oku-Tsugaru-Imabetsu"
      },
      "operatorIds": [],
      "lat": 41.14508333,
      "lon": 140.51544444,
      "sourceStopIds": [
        "OKU_TSUGARU_IMABETSU"
      ],
      "stationGroupId": "SG_OKU_TSUGARU_IMABETSU",
      "tags": [
        "normal",
        "shinkansen"
      ]
    },
    {
      "id": "PS_KIKONAI",
      "name": "Kikonai",
      "names": {
        "en": "Kikonai",
        "ja": "木古内",
        "zh_hans": "Kikonai"
      },
      "operatorIds": [],
      "lat": 41.677642,
      "lon": 140.434004,
      "sourceStopIds": [
        "KIKONAI"
      ],
      "stationGroupId": "SG_KIKONAI",
      "tags": [
        "normal",
        "shinkansen"
      ]
    },
    {
      "id": "PS_SHIN_HAKODATE_HOKUTO",
      "name": "Shin-Hakodate-Hokuto",
      "names": {
        "en": "Shin-Hakodate-Hokuto",
        "ja": "新函館北斗",
        "zh_hans": "Shin-Hakodate-Hokuto"
      },
      "operatorIds": [],
      "lat": 41.9054,
      "lon": 140.646525,
      "sourceStopIds": [
        "SHIN_HAKODATE_HOKUTO"
      ],
      "stationGroupId": "SG_SHIN_HAKODATE_HOKUTO",
      "tags": [
        "hub",
        "shinkansen"
      ]
    },
    {
      "id": "PS_YONEZAWA",
      "name": "Yonezawa",
      "names": {
        "en": "Yonezawa",
        "ja": "米沢",
        "zh_hans": "Yonezawa"
      },
      "operatorIds": [],
      "lat": 37.909478,
      "lon": 140.128209,
      "sourceStopIds": [
        "YONEZAWA"
      ],
      "stationGroupId": "SG_YONEZAWA",
      "tags": [
        "normal",
        "shinkansen"
      ]
    },
    {
      "id": "PS_TAKAHATA",
      "name": "Takahata",
      "names": {
        "en": "Takahata",
        "ja": "高畠",
        "zh_hans": "Takahata"
      },
      "operatorIds": [],
      "lat": 37.992314,
      "lon": 140.15281,
      "sourceStopIds": [
        "TAKAHATA"
      ],
      "stationGroupId": "SG_TAKAHATA",
      "tags": [
        "normal",
        "shinkansen"
      ]
    },
    {
      "id": "PS_AKAYU",
      "name": "Akayu",
      "names": {
        "en": "Akayu",
        "ja": "赤湯",
        "zh_hans": "Akayu"
      },
      "operatorIds": [],
      "lat": 38.047081,
      "lon": 140.148978,
      "sourceStopIds": [
        "AKAYU"
      ],
      "stationGroupId": "SG_AKAYU",
      "tags": [
        "normal",
        "shinkansen"
      ]
    },
    {
      "id": "PS_KAMINOYAMA_ONSEN",
      "name": "Kaminoyama-Onsen",
      "names": {
        "en": "Kaminoyama-Onsen",
        "ja": "かみのやま温泉",
        "zh_hans": "Kaminoyama-Onsen"
      },
      "operatorIds": [],
      "lat": 38.152259,
      "lon": 140.27867,
      "sourceStopIds": [
        "KAMINOYAMA_ONSEN"
      ],
      "stationGroupId": "SG_KAMINOYAMA_ONSEN",
      "tags": [
        "normal",
        "shinkansen"
      ]
    },
    {
      "id": "PS_YAMAGATA",
      "name": "Yamagata",
      "names": {
        "en": "Yamagata",
        "ja": "山形",
        "zh_hans": "Yamagata"
      },
      "operatorIds": [],
      "lat": 38.248098,
      "lon": 140.327253,
      "sourceStopIds": [
        "YAMAGATA"
      ],
      "stationGroupId": "SG_YAMAGATA",
      "tags": [
        "hub",
        "shinkansen"
      ]
    },
    {
      "id": "PS_TENDO",
      "name": "Tendo",
      "names": {
        "en": "Tendo",
        "ja": "天童",
        "zh_hans": "Tendo"
      },
      "operatorIds": [],
      "lat": 38.35989,
      "lon": 140.369303,
      "sourceStopIds": [
        "TENDO"
      ],
      "stationGroupId": "SG_TENDO",
      "tags": [
        "normal",
        "shinkansen"
      ]
    },
    {
      "id": "PS_SAKURANBO_HIGASHINE",
      "name": "Sakuranbo-Higashine",
      "names": {
        "en": "Sakuranbo-Higashine",
        "ja": "さくらんぼ東根",
        "zh_hans": "Sakuranbo-Higashine"
      },
      "operatorIds": [],
      "lat": 38.42806,
      "lon": 140.380677,
      "sourceStopIds": [
        "SAKURANBO_HIGASHINE"
      ],
      "stationGroupId": "SG_SAKURANBO_HIGASHINE",
      "tags": [
        "normal",
        "shinkansen"
      ]
    },
    {
      "id": "PS_MURAYAMA",
      "name": "Murayama",
      "names": {
        "en": "Murayama",
        "ja": "村山",
        "zh_hans": "Murayama"
      },
      "operatorIds": [],
      "lat": 38.477078,
      "lon": 140.386399,
      "sourceStopIds": [
        "MURAYAMA"
      ],
      "stationGroupId": "SG_MURAYAMA",
      "tags": [
        "normal",
        "shinkansen"
      ]
    },
    {
      "id": "PS_OISHIDA",
      "name": "Oishida",
      "names": {
        "en": "Oishida",
        "ja": "大石田",
        "zh_hans": "Oishida"
      },
      "operatorIds": [],
      "lat": 38.595916,
      "lon": 140.375349,
      "sourceStopIds": [
        "OISHIDA"
      ],
      "stationGroupId": "SG_OISHIDA",
      "tags": [
        "normal",
        "shinkansen"
      ]
    },
    {
      "id": "PS_SHINJO",
      "name": "Shinjo",
      "names": {
        "en": "Shinjo",
        "ja": "新庄",
        "zh_hans": "Shinjo"
      },
      "operatorIds": [],
      "lat": 38.76256,
      "lon": 140.306064,
      "sourceStopIds": [
        "SHINJO"
      ],
      "stationGroupId": "SG_SHINJO",
      "tags": [
        "hub",
        "shinkansen"
      ]
    },
    {
      "id": "PS_SHIZUKUISHI",
      "name": "Shizukuishi",
      "names": {
        "en": "Shizukuishi",
        "ja": "雫石",
        "zh_hans": "Shizukuishi"
      },
      "operatorIds": [],
      "lat": 39.689244,
      "lon": 140.974762,
      "sourceStopIds": [
        "SHIZUKUISHI"
      ],
      "stationGroupId": "SG_SHIZUKUISHI",
      "tags": [
        "normal",
        "shinkansen"
      ]
    },
    {
      "id": "PS_TAZAWAKO",
      "name": "Tazawako",
      "names": {
        "en": "Tazawako",
        "ja": "田沢湖",
        "zh_hans": "Tazawako"
      },
      "operatorIds": [],
      "lat": 39.700363,
      "lon": 140.722139,
      "sourceStopIds": [
        "TAZAWAKO"
      ],
      "stationGroupId": "SG_TAZAWAKO",
      "tags": [
        "normal",
        "shinkansen"
      ]
    },
    {
      "id": "PS_KAKUNODATE",
      "name": "Kakunodate",
      "names": {
        "en": "Kakunodate",
        "ja": "角館",
        "zh_hans": "Kakunodate"
      },
      "operatorIds": [],
      "lat": 39.591716,
      "lon": 140.570988,
      "sourceStopIds": [
        "KAKUNODATE"
      ],
      "stationGroupId": "SG_KAKUNODATE",
      "tags": [
        "normal",
        "shinkansen"
      ]
    },
    {
      "id": "PS_OMAGARI",
      "name": "Omagari",
      "names": {
        "en": "Omagari",
        "ja": "大曲",
        "zh_hans": "Omagari"
      },
      "operatorIds": [],
      "lat": 39.465712,
      "lon": 140.479628,
      "sourceStopIds": [
        "OMAGARI"
      ],
      "stationGroupId": "SG_OMAGARI",
      "tags": [
        "hub",
        "shinkansen"
      ]
    },
    {
      "id": "PS_AKITA",
      "name": "Akita",
      "names": {
        "en": "Akita",
        "ja": "秋田",
        "zh_hans": "Akita"
      },
      "operatorIds": [],
      "lat": 39.716748,
      "lon": 140.129931,
      "sourceStopIds": [
        "AKITA"
      ],
      "stationGroupId": "SG_AKITA",
      "tags": [
        "hub",
        "shinkansen"
      ]
    },
    {
      "id": "PS_JOMO_KOGEN",
      "name": "Jomo-Kogen",
      "names": {
        "en": "Jomo-Kogen",
        "ja": "上毛高原",
        "zh_hans": "Jomo-Kogen"
      },
      "operatorIds": [],
      "lat": 36.69322222,
      "lon": 138.97761111,
      "sourceStopIds": [
        "JOMO_KOGEN"
      ],
      "stationGroupId": "SG_JOMO_KOGEN",
      "tags": [
        "normal",
        "shinkansen"
      ]
    },
    {
      "id": "PS_ECHIGO_YUZAWA",
      "name": "Echigo-Yuzawa",
      "names": {
        "en": "Echigo-Yuzawa",
        "ja": "越後湯沢",
        "zh_hans": "Echigo-Yuzawa"
      },
      "operatorIds": [],
      "lat": 36.935799,
      "lon": 138.809227,
      "sourceStopIds": [
        "ECHIGO_YUZAWA"
      ],
      "stationGroupId": "SG_ECHIGO_YUZAWA",
      "tags": [
        "hub",
        "shinkansen"
      ]
    },
    {
      "id": "PS_GALA_YUZAWA",
      "name": "Gala Yuzawa",
      "names": {
        "en": "Gala Yuzawa",
        "ja": "ガーラ湯沢",
        "zh_hans": "Gala Yuzawa"
      },
      "operatorIds": [],
      "lat": 36.95088889,
      "lon": 138.79952778,
      "sourceStopIds": [
        "GALA_YUZAWA"
      ],
      "stationGroupId": "SG_GALA_YUZAWA",
      "tags": [
        "normal",
        "shinkansen"
      ]
    },
    {
      "id": "PS_URASA",
      "name": "Urasa",
      "names": {
        "en": "Urasa",
        "ja": "浦佐",
        "zh_hans": "Urasa"
      },
      "operatorIds": [],
      "lat": 37.167488,
      "lon": 138.922798,
      "sourceStopIds": [
        "URASA"
      ],
      "stationGroupId": "SG_URASA",
      "tags": [
        "normal",
        "shinkansen"
      ]
    },
    {
      "id": "PS_NAGAOKA",
      "name": "Nagaoka",
      "names": {
        "en": "Nagaoka",
        "ja": "長岡",
        "zh_hans": "Nagaoka"
      },
      "operatorIds": [],
      "lat": 37.447787,
      "lon": 138.853927,
      "sourceStopIds": [
        "NAGAOKA"
      ],
      "stationGroupId": "SG_NAGAOKA",
      "tags": [
        "hub",
        "shinkansen"
      ]
    },
    {
      "id": "PS_TSUBAME_SANJO",
      "name": "Tsubame-Sanjo",
      "names": {
        "en": "Tsubame-Sanjo",
        "ja": "燕三条",
        "zh_hans": "Tsubame-Sanjo"
      },
      "operatorIds": [],
      "lat": 37.648824,
      "lon": 138.939274,
      "sourceStopIds": [
        "TSUBAME_SANJO"
      ],
      "stationGroupId": "SG_TSUBAME_SANJO",
      "tags": [
        "normal",
        "shinkansen"
      ]
    },
    {
      "id": "PS_NIIGATA",
      "name": "Niigata",
      "names": {
        "en": "Niigata",
        "ja": "新潟",
        "zh_hans": "Niigata"
      },
      "operatorIds": [],
      "lat": 37.912299,
      "lon": 139.060869,
      "sourceStopIds": [
        "NIIGATA"
      ],
      "stationGroupId": "SG_NIIGATA",
      "tags": [
        "hub",
        "shinkansen"
      ]
    },
    {
      "id": "PS_ANNAKA_HARUNA",
      "name": "Annaka-Haruna",
      "names": {
        "en": "Annaka-Haruna",
        "ja": "安中榛名",
        "zh_hans": "Annaka-Haruna"
      },
      "operatorIds": [],
      "lat": 36.36241667,
      "lon": 138.84958333,
      "sourceStopIds": [
        "ANNAKA_HARUNA"
      ],
      "stationGroupId": "SG_ANNAKA_HARUNA",
      "tags": [
        "normal",
        "shinkansen"
      ]
    },
    {
      "id": "PS_KARUIZAWA",
      "name": "Karuizawa",
      "names": {
        "en": "Karuizawa",
        "ja": "軽井沢",
        "zh_hans": "Karuizawa"
      },
      "operatorIds": [],
      "lat": 36.342889,
      "lon": 138.635096,
      "sourceStopIds": [
        "KARUIZAWA"
      ],
      "stationGroupId": "SG_KARUIZAWA",
      "tags": [
        "normal",
        "shinkansen"
      ]
    },
    {
      "id": "PS_SAKUDAIRA",
      "name": "Sakudaira",
      "names": {
        "en": "Sakudaira",
        "ja": "佐久平",
        "zh_hans": "Sakudaira"
      },
      "operatorIds": [],
      "lat": 36.277929,
      "lon": 138.464367,
      "sourceStopIds": [
        "SAKUDAIRA"
      ],
      "stationGroupId": "SG_SAKUDAIRA",
      "tags": [
        "normal",
        "shinkansen"
      ]
    },
    {
      "id": "PS_UEDA",
      "name": "Ueda",
      "names": {
        "en": "Ueda",
        "ja": "上田",
        "zh_hans": "Ueda"
      },
      "operatorIds": [],
      "lat": 36.396579,
      "lon": 138.249298,
      "sourceStopIds": [
        "UEDA"
      ],
      "stationGroupId": "SG_UEDA",
      "tags": [
        "normal",
        "shinkansen"
      ]
    },
    {
      "id": "PS_NAGANO",
      "name": "Nagano",
      "names": {
        "en": "Nagano",
        "ja": "長野",
        "zh_hans": "Nagano"
      },
      "operatorIds": [],
      "lat": 36.643307,
      "lon": 138.189101,
      "sourceStopIds": [
        "NAGANO"
      ],
      "stationGroupId": "SG_NAGANO",
      "tags": [
        "hub",
        "shinkansen"
      ]
    },
    {
      "id": "PS_IIYAMA",
      "name": "Iiyama",
      "names": {
        "en": "Iiyama",
        "ja": "飯山",
        "zh_hans": "Iiyama"
      },
      "operatorIds": [],
      "lat": 36.847642,
      "lon": 138.359335,
      "sourceStopIds": [
        "IIYAMA"
      ],
      "stationGroupId": "SG_IIYAMA",
      "tags": [
        "normal",
        "shinkansen"
      ]
    },
    {
      "id": "PS_JOETSUMYOKO",
      "name": "Joetsumyoko",
      "names": {
        "en": "Joetsumyoko",
        "ja": "上越妙高",
        "zh_hans": "Joetsumyoko"
      },
      "operatorIds": [],
      "lat": 37.081813,
      "lon": 138.249476,
      "sourceStopIds": [
        "JOETSUMYOKO"
      ],
      "stationGroupId": "SG_JOETSUMYOKO",
      "tags": [
        "hub",
        "shinkansen"
      ]
    },
    {
      "id": "PS_ITOIGAWA",
      "name": "Itoigawa",
      "names": {
        "en": "Itoigawa",
        "ja": "糸魚川",
        "zh_hans": "Itoigawa"
      },
      "operatorIds": [],
      "lat": 37.043631,
      "lon": 137.861311,
      "sourceStopIds": [
        "ITOIGAWA"
      ],
      "stationGroupId": "SG_ITOIGAWA",
      "tags": [
        "normal",
        "shinkansen"
      ]
    },
    {
      "id": "PS_KUROBE_UNAZUKIONSEN",
      "name": "Kurobe-Unazukionsen",
      "names": {
        "en": "Kurobe-Unazukionsen",
        "ja": "黒部宇奈月温泉",
        "zh_hans": "Kurobe-Unazukionsen"
      },
      "operatorIds": [],
      "lat": 36.87472222,
      "lon": 137.48222222,
      "sourceStopIds": [
        "KUROBE_UNAZUKIONSEN"
      ],
      "stationGroupId": "SG_KUROBE_UNAZUKIONSEN",
      "tags": [
        "normal",
        "shinkansen"
      ]
    },
    {
      "id": "PS_TOYAMA",
      "name": "Toyama",
      "names": {
        "en": "Toyama",
        "ja": "富山",
        "zh_hans": "Toyama"
      },
      "operatorIds": [],
      "lat": 36.701384,
      "lon": 137.213091,
      "sourceStopIds": [
        "TOYAMA"
      ],
      "stationGroupId": "SG_TOYAMA",
      "tags": [
        "hub",
        "shinkansen"
      ]
    },
    {
      "id": "PS_SHIN_TAKAOKA",
      "name": "Shin-Takaoka",
      "names": {
        "en": "Shin-Takaoka",
        "ja": "新高岡",
        "zh_hans": "Shin-Takaoka"
      },
      "operatorIds": [],
      "lat": 36.727004,
      "lon": 137.010459,
      "sourceStopIds": [
        "SHIN_TAKAOKA"
      ],
      "stationGroupId": "SG_SHIN_TAKAOKA",
      "tags": [
        "normal",
        "shinkansen"
      ]
    },
    {
      "id": "PS_KANAZAWA",
      "name": "Kanazawa",
      "names": {
        "en": "Kanazawa",
        "ja": "金沢",
        "zh_hans": "Kanazawa"
      },
      "operatorIds": [],
      "lat": 36.578117,
      "lon": 136.648166,
      "sourceStopIds": [
        "KANAZAWA"
      ],
      "stationGroupId": "SG_KANAZAWA",
      "tags": [
        "hub",
        "shinkansen"
      ]
    },
    {
      "id": "PS_KOMATSU",
      "name": "Komatsu",
      "names": {
        "en": "Komatsu",
        "ja": "小松",
        "zh_hans": "Komatsu"
      },
      "operatorIds": [],
      "lat": 36.402545,
      "lon": 136.452926,
      "sourceStopIds": [
        "KOMATSU"
      ],
      "stationGroupId": "SG_KOMATSU",
      "tags": [
        "normal",
        "shinkansen"
      ]
    },
    {
      "id": "PS_KAGAONSEN",
      "name": "Kagaonsen",
      "names": {
        "en": "Kagaonsen",
        "ja": "加賀温泉",
        "zh_hans": "Kagaonsen"
      },
      "operatorIds": [],
      "lat": 36.320562,
      "lon": 136.350337,
      "sourceStopIds": [
        "KAGAONSEN"
      ],
      "stationGroupId": "SG_KAGAONSEN",
      "tags": [
        "normal",
        "shinkansen"
      ]
    },
    {
      "id": "PS_AWARAONSEN",
      "name": "Awaraonsen",
      "names": {
        "en": "Awaraonsen",
        "ja": "芦原温泉",
        "zh_hans": "Awaraonsen"
      },
      "operatorIds": [],
      "lat": 36.214542,
      "lon": 136.235069,
      "sourceStopIds": [
        "AWARAONSEN"
      ],
      "stationGroupId": "SG_AWARAONSEN",
      "tags": [
        "normal",
        "shinkansen"
      ]
    },
    {
      "id": "PS_FUKUI",
      "name": "Fukui",
      "names": {
        "en": "Fukui",
        "ja": "福井",
        "zh_hans": "Fukui"
      },
      "operatorIds": [],
      "lat": 36.062057,
      "lon": 136.223516,
      "sourceStopIds": [
        "FUKUI"
      ],
      "stationGroupId": "SG_FUKUI",
      "tags": [
        "hub",
        "shinkansen"
      ]
    },
    {
      "id": "PS_ECHIZEN_TAKEFU",
      "name": "Echizen-Takefu",
      "names": {
        "en": "Echizen-Takefu",
        "ja": "越前たけふ",
        "zh_hans": "Echizen-Takefu"
      },
      "operatorIds": [],
      "lat": 35.89566667,
      "lon": 136.19888889,
      "sourceStopIds": [
        "ECHIZEN_TAKEFU"
      ],
      "stationGroupId": "SG_ECHIZEN_TAKEFU",
      "tags": [
        "normal",
        "shinkansen"
      ]
    },
    {
      "id": "PS_TSURUGA",
      "name": "Tsuruga",
      "names": {
        "en": "Tsuruga",
        "ja": "敦賀",
        "zh_hans": "Tsuruga"
      },
      "operatorIds": [],
      "lat": 35.644767,
      "lon": 136.076488,
      "sourceStopIds": [
        "TSURUGA"
      ],
      "stationGroupId": "SG_TSURUGA",
      "tags": [
        "hub",
        "shinkansen"
      ]
    },
    {
      "id": "PS_SHINAGAWA",
      "name": "Shinagawa",
      "names": {
        "en": "Shinagawa",
        "ja": "品川",
        "zh_hans": "Shinagawa"
      },
      "operatorIds": [],
      "lat": 35.62876,
      "lon": 139.738999,
      "sourceStopIds": [
        "SHINAGAWA"
      ],
      "stationGroupId": "SG_SHINAGAWA",
      "tags": [
        "hub",
        "shinkansen"
      ]
    },
    {
      "id": "PS_SHIN_YOKOHAMA",
      "name": "Shin-Yokohama",
      "names": {
        "en": "Shin-Yokohama",
        "ja": "新横浜",
        "zh_hans": "Shin-Yokohama"
      },
      "operatorIds": [],
      "lat": 35.506824,
      "lon": 139.617348,
      "sourceStopIds": [
        "SHIN_YOKOHAMA"
      ],
      "stationGroupId": "SG_SHIN_YOKOHAMA",
      "tags": [
        "hub",
        "shinkansen"
      ]
    },
    {
      "id": "PS_ODAWARA",
      "name": "Odawara",
      "names": {
        "en": "Odawara",
        "ja": "小田原",
        "zh_hans": "Odawara"
      },
      "operatorIds": [],
      "lat": 35.256225,
      "lon": 139.155772,
      "sourceStopIds": [
        "ODAWARA"
      ],
      "stationGroupId": "SG_ODAWARA",
      "tags": [
        "normal",
        "shinkansen"
      ]
    },
    {
      "id": "PS_ATAMI",
      "name": "Atami",
      "names": {
        "en": "Atami",
        "ja": "熱海",
        "zh_hans": "Atami"
      },
      "operatorIds": [],
      "lat": 35.103573,
      "lon": 139.077679,
      "sourceStopIds": [
        "ATAMI"
      ],
      "stationGroupId": "SG_ATAMI",
      "tags": [
        "normal",
        "shinkansen"
      ]
    },
    {
      "id": "PS_MISHIMA",
      "name": "Mishima",
      "names": {
        "en": "Mishima",
        "ja": "三島",
        "zh_hans": "Mishima"
      },
      "operatorIds": [],
      "lat": 35.126253,
      "lon": 138.911133,
      "sourceStopIds": [
        "MISHIMA"
      ],
      "stationGroupId": "SG_MISHIMA",
      "tags": [
        "normal",
        "shinkansen"
      ]
    },
    {
      "id": "PS_SHIN_FUJI",
      "name": "Shin-Fuji",
      "names": {
        "en": "Shin-Fuji",
        "ja": "新富士",
        "zh_hans": "Shin-Fuji"
      },
      "operatorIds": [],
      "lat": 35.142,
      "lon": 138.66336111,
      "sourceStopIds": [
        "SHIN_FUJI"
      ],
      "stationGroupId": "SG_SHIN_FUJI",
      "tags": [
        "normal",
        "shinkansen"
      ]
    },
    {
      "id": "PS_SHIZUOKA",
      "name": "Shizuoka",
      "names": {
        "en": "Shizuoka",
        "ja": "静岡",
        "zh_hans": "Shizuoka"
      },
      "operatorIds": [],
      "lat": 34.971629,
      "lon": 138.388579,
      "sourceStopIds": [
        "SHIZUOKA"
      ],
      "stationGroupId": "SG_SHIZUOKA",
      "tags": [
        "hub",
        "shinkansen"
      ]
    },
    {
      "id": "PS_KAKEGAWA",
      "name": "Kakegawa",
      "names": {
        "en": "Kakegawa",
        "ja": "掛川",
        "zh_hans": "Kakegawa"
      },
      "operatorIds": [],
      "lat": 34.769463,
      "lon": 138.014937,
      "sourceStopIds": [
        "KAKEGAWA"
      ],
      "stationGroupId": "SG_KAKEGAWA",
      "tags": [
        "normal",
        "shinkansen"
      ]
    },
    {
      "id": "PS_HAMAMATSU",
      "name": "Hamamatsu",
      "names": {
        "en": "Hamamatsu",
        "ja": "浜松",
        "zh_hans": "Hamamatsu"
      },
      "operatorIds": [],
      "lat": 34.703866,
      "lon": 137.734759,
      "sourceStopIds": [
        "HAMAMATSU"
      ],
      "stationGroupId": "SG_HAMAMATSU",
      "tags": [
        "hub",
        "shinkansen"
      ]
    },
    {
      "id": "PS_TOYOHASHI",
      "name": "Toyohashi",
      "names": {
        "en": "Toyohashi",
        "ja": "豊橋",
        "zh_hans": "Toyohashi"
      },
      "operatorIds": [],
      "lat": 34.762734,
      "lon": 137.382128,
      "sourceStopIds": [
        "TOYOHASHI"
      ],
      "stationGroupId": "SG_TOYOHASHI",
      "tags": [
        "normal",
        "shinkansen"
      ]
    },
    {
      "id": "PS_MIKAWA_ANJO",
      "name": "Mikawa-Anjo",
      "names": {
        "en": "Mikawa-Anjo",
        "ja": "三河安城",
        "zh_hans": "Mikawa-Anjo"
      },
      "operatorIds": [],
      "lat": 34.96968,
      "lon": 137.060918,
      "sourceStopIds": [
        "MIKAWA_ANJO"
      ],
      "stationGroupId": "SG_MIKAWA_ANJO",
      "tags": [
        "normal",
        "shinkansen"
      ]
    },
    {
      "id": "PS_NAGOYA",
      "name": "Nagoya",
      "names": {
        "en": "Nagoya",
        "ja": "名古屋",
        "zh_hans": "Nagoya"
      },
      "operatorIds": [],
      "lat": 35.170694,
      "lon": 136.881637,
      "sourceStopIds": [
        "NAGOYA"
      ],
      "stationGroupId": "SG_NAGOYA",
      "tags": [
        "hub",
        "shinkansen"
      ]
    },
    {
      "id": "PS_GIFU_HASHIMA",
      "name": "Gifu-Hashima",
      "names": {
        "en": "Gifu-Hashima",
        "ja": "岐阜羽島",
        "zh_hans": "Gifu-Hashima"
      },
      "operatorIds": [],
      "lat": 35.31583333,
      "lon": 136.68555556,
      "sourceStopIds": [
        "GIFU_HASHIMA"
      ],
      "stationGroupId": "SG_GIFU_HASHIMA",
      "tags": [
        "normal",
        "shinkansen"
      ]
    },
    {
      "id": "PS_MAIBARA",
      "name": "Maibara",
      "names": {
        "en": "Maibara",
        "ja": "米原",
        "zh_hans": "Maibara"
      },
      "operatorIds": [],
      "lat": 35.314657,
      "lon": 136.289992,
      "sourceStopIds": [
        "MAIBARA"
      ],
      "stationGroupId": "SG_MAIBARA",
      "tags": [
        "hub",
        "shinkansen"
      ]
    },
    {
      "id": "PS_KYOTO",
      "name": "Kyoto",
      "names": {
        "en": "Kyoto",
        "ja": "京都",
        "zh_hans": "Kyoto"
      },
      "operatorIds": [],
      "lat": 34.985465,
      "lon": 135.757748,
      "sourceStopIds": [
        "KYOTO"
      ],
      "stationGroupId": "SG_KYOTO",
      "tags": [
        "hub",
        "shinkansen"
      ]
    },
    {
      "id": "PS_SHIN_OSAKA",
      "name": "Shin-Osaka",
      "names": {
        "en": "Shin-Osaka",
        "ja": "新大阪",
        "zh_hans": "Shin-Osaka"
      },
      "operatorIds": [],
      "lat": 34.734136,
      "lon": 135.501852,
      "sourceStopIds": [
        "SHIN_OSAKA"
      ],
      "stationGroupId": "SG_SHIN_OSAKA",
      "tags": [
        "hub",
        "shinkansen"
      ]
    },
    {
      "id": "PS_SHIN_KOBE",
      "name": "Shin-Kobe",
      "names": {
        "en": "Shin-Kobe",
        "ja": "新神戸",
        "zh_hans": "Shin-Kobe"
      },
      "operatorIds": [],
      "lat": 34.706417,
      "lon": 135.195758,
      "sourceStopIds": [
        "SHIN_KOBE"
      ],
      "stationGroupId": "SG_SHIN_KOBE",
      "tags": [
        "hub",
        "shinkansen"
      ]
    },
    {
      "id": "PS_NISHI_AKASHI",
      "name": "Nishi-Akashi",
      "names": {
        "en": "Nishi-Akashi",
        "ja": "西明石",
        "zh_hans": "Nishi-Akashi"
      },
      "operatorIds": [],
      "lat": 34.66591,
      "lon": 134.960151,
      "sourceStopIds": [
        "NISHI_AKASHI"
      ],
      "stationGroupId": "SG_NISHI_AKASHI",
      "tags": [
        "normal",
        "shinkansen"
      ]
    },
    {
      "id": "PS_HIMEJI",
      "name": "Himeji",
      "names": {
        "en": "Himeji",
        "ja": "姫路",
        "zh_hans": "Himeji"
      },
      "operatorIds": [],
      "lat": 34.827659,
      "lon": 134.690769,
      "sourceStopIds": [
        "HIMEJI"
      ],
      "stationGroupId": "SG_HIMEJI",
      "tags": [
        "hub",
        "shinkansen"
      ]
    },
    {
      "id": "PS_AIOI",
      "name": "Aioi",
      "names": {
        "en": "Aioi",
        "ja": "相生",
        "zh_hans": "Aioi"
      },
      "operatorIds": [],
      "lat": 34.818052,
      "lon": 134.47341,
      "sourceStopIds": [
        "AIOI"
      ],
      "stationGroupId": "SG_AIOI",
      "tags": [
        "normal",
        "shinkansen"
      ]
    },
    {
      "id": "PS_OKAYAMA",
      "name": "Okayama",
      "names": {
        "en": "Okayama",
        "ja": "岡山",
        "zh_hans": "Okayama"
      },
      "operatorIds": [],
      "lat": 34.666572,
      "lon": 133.918552,
      "sourceStopIds": [
        "OKAYAMA"
      ],
      "stationGroupId": "SG_OKAYAMA",
      "tags": [
        "hub",
        "shinkansen"
      ]
    },
    {
      "id": "PS_SHIN_KURASHIKI",
      "name": "Shin-Kurashiki",
      "names": {
        "en": "Shin-Kurashiki",
        "ja": "新倉敷",
        "zh_hans": "Shin-Kurashiki"
      },
      "operatorIds": [],
      "lat": 34.56509,
      "lon": 133.678344,
      "sourceStopIds": [
        "SHIN_KURASHIKI"
      ],
      "stationGroupId": "SG_SHIN_KURASHIKI",
      "tags": [
        "normal",
        "shinkansen"
      ]
    },
    {
      "id": "PS_FUKUYAMA",
      "name": "Fukuyama",
      "names": {
        "en": "Fukuyama",
        "ja": "福山",
        "zh_hans": "Fukuyama"
      },
      "operatorIds": [],
      "lat": 34.489291,
      "lon": 133.361429,
      "sourceStopIds": [
        "FUKUYAMA"
      ],
      "stationGroupId": "SG_FUKUYAMA",
      "tags": [
        "hub",
        "shinkansen"
      ]
    },
    {
      "id": "PS_SHIN_ONOMICHI",
      "name": "Shin-Onomichi",
      "names": {
        "en": "Shin-Onomichi",
        "ja": "新尾道",
        "zh_hans": "Shin-Onomichi"
      },
      "operatorIds": [],
      "lat": 34.43008333,
      "lon": 133.19033333,
      "sourceStopIds": [
        "SHIN_ONOMICHI"
      ],
      "stationGroupId": "SG_SHIN_ONOMICHI",
      "tags": [
        "normal",
        "shinkansen"
      ]
    },
    {
      "id": "PS_MIHARA",
      "name": "Mihara",
      "names": {
        "en": "Mihara",
        "ja": "三原",
        "zh_hans": "Mihara"
      },
      "operatorIds": [],
      "lat": 34.400486,
      "lon": 133.083049,
      "sourceStopIds": [
        "MIHARA"
      ],
      "stationGroupId": "SG_MIHARA",
      "tags": [
        "normal",
        "shinkansen"
      ]
    },
    {
      "id": "PS_HIGASHI_HIROSHIMA",
      "name": "Higashi-Hiroshima",
      "names": {
        "en": "Higashi-Hiroshima",
        "ja": "東広島",
        "zh_hans": "Higashi-Hiroshima"
      },
      "operatorIds": [],
      "lat": 34.38936111,
      "lon": 132.75977778,
      "sourceStopIds": [
        "HIGASHI_HIROSHIMA"
      ],
      "stationGroupId": "SG_HIGASHI_HIROSHIMA",
      "tags": [
        "normal",
        "shinkansen"
      ]
    },
    {
      "id": "PS_HIROSHIMA",
      "name": "Hiroshima",
      "names": {
        "en": "Hiroshima",
        "ja": "広島",
        "zh_hans": "Hiroshima"
      },
      "operatorIds": [],
      "lat": 34.397446,
      "lon": 132.475593,
      "sourceStopIds": [
        "HIROSHIMA"
      ],
      "stationGroupId": "SG_HIROSHIMA",
      "tags": [
        "hub",
        "shinkansen"
      ]
    },
    {
      "id": "PS_SHIN_IWAKUNI",
      "name": "Shin-Iwakuni",
      "names": {
        "en": "Shin-Iwakuni",
        "ja": "清流新岩国",
        "zh_hans": "Shin-Iwakuni"
      },
      "operatorIds": [],
      "lat": 34.162639,
      "lon": 132.14764,
      "sourceStopIds": [
        "SHIN_IWAKUNI"
      ],
      "stationGroupId": "SG_SHIN_IWAKUNI",
      "tags": [
        "normal",
        "shinkansen"
      ]
    },
    {
      "id": "PS_TOKUYAMA",
      "name": "Tokuyama",
      "names": {
        "en": "Tokuyama",
        "ja": "徳山",
        "zh_hans": "Tokuyama"
      },
      "operatorIds": [],
      "lat": 34.051555,
      "lon": 131.8029,
      "sourceStopIds": [
        "TOKUYAMA"
      ],
      "stationGroupId": "SG_TOKUYAMA",
      "tags": [
        "hub",
        "shinkansen"
      ]
    },
    {
      "id": "PS_SHIN_YAMAGUCHI",
      "name": "Shin-Yamaguchi",
      "names": {
        "en": "Shin-Yamaguchi",
        "ja": "新山口",
        "zh_hans": "Shin-Yamaguchi"
      },
      "operatorIds": [],
      "lat": 34.093255,
      "lon": 131.39657,
      "sourceStopIds": [
        "SHIN_YAMAGUCHI"
      ],
      "stationGroupId": "SG_SHIN_YAMAGUCHI",
      "tags": [
        "hub",
        "shinkansen"
      ]
    },
    {
      "id": "PS_ASA",
      "name": "Asa",
      "names": {
        "en": "Asa",
        "ja": "厚狭",
        "zh_hans": "Asa"
      },
      "operatorIds": [],
      "lat": 34.053361,
      "lon": 131.159965,
      "sourceStopIds": [
        "ASA"
      ],
      "stationGroupId": "SG_ASA",
      "tags": [
        "normal",
        "shinkansen"
      ]
    },
    {
      "id": "PS_SHIN_SHIMONOSEKI",
      "name": "Shin-Shimonoseki",
      "names": {
        "en": "Shin-Shimonoseki",
        "ja": "新下関",
        "zh_hans": "Shin-Shimonoseki"
      },
      "operatorIds": [],
      "lat": 34.005651,
      "lon": 130.948021,
      "sourceStopIds": [
        "SHIN_SHIMONOSEKI"
      ],
      "stationGroupId": "SG_SHIN_SHIMONOSEKI",
      "tags": [
        "hub",
        "shinkansen"
      ]
    },
    {
      "id": "PS_KOKURA",
      "name": "Kokura",
      "names": {
        "en": "Kokura",
        "ja": "小倉",
        "zh_hans": "Kokura"
      },
      "operatorIds": [],
      "lat": 33.886756,
      "lon": 130.882678,
      "sourceStopIds": [
        "KOKURA"
      ],
      "stationGroupId": "SG_KOKURA",
      "tags": [
        "hub",
        "shinkansen"
      ]
    },
    {
      "id": "PS_HAKATA",
      "name": "Hakata",
      "names": {
        "en": "Hakata",
        "ja": "博多",
        "zh_hans": "Hakata"
      },
      "operatorIds": [],
      "lat": 33.590002,
      "lon": 130.420622,
      "sourceStopIds": [
        "HAKATA"
      ],
      "stationGroupId": "SG_HAKATA",
      "tags": [
        "hub",
        "shinkansen"
      ]
    },
    {
      "id": "PS_SHIN_TOSU",
      "name": "Shin-Tosu",
      "names": {
        "en": "Shin-Tosu",
        "ja": "新鳥栖",
        "zh_hans": "Shin-Tosu"
      },
      "operatorIds": [],
      "lat": 33.370278,
      "lon": 130.491111,
      "sourceStopIds": [
        "SHIN_TOSU"
      ],
      "stationGroupId": "SG_SHIN_TOSU",
      "tags": [
        "hub",
        "shinkansen"
      ]
    },
    {
      "id": "PS_KURUME",
      "name": "Kurume",
      "names": {
        "en": "Kurume",
        "ja": "久留米",
        "zh_hans": "Kurume"
      },
      "operatorIds": [],
      "lat": 33.319778,
      "lon": 130.501408,
      "sourceStopIds": [
        "KURUME"
      ],
      "stationGroupId": "SG_KURUME",
      "tags": [
        "hub",
        "shinkansen"
      ]
    },
    {
      "id": "PS_CHIKUGO_FUNAGOYA",
      "name": "Chikugo-Funagoya",
      "names": {
        "en": "Chikugo-Funagoya",
        "ja": "筑後船小屋",
        "zh_hans": "Chikugo-Funagoya"
      },
      "operatorIds": [],
      "lat": 33.17802332986661,
      "lon": 130.49160361289978,
      "sourceStopIds": [
        "CHIKUGO_FUNAGOYA"
      ],
      "stationGroupId": "SG_CHIKUGO_FUNAGOYA",
      "tags": [
        "normal",
        "shinkansen"
      ]
    },
    {
      "id": "PS_SHIN_OMUTA",
      "name": "Shin-Omuta",
      "names": {
        "en": "Shin-Omuta",
        "ja": "新大牟田",
        "zh_hans": "Shin-Omuta"
      },
      "operatorIds": [],
      "lat": 33.07125,
      "lon": 130.48875,
      "sourceStopIds": [
        "SHIN_OMUTA"
      ],
      "stationGroupId": "SG_SHIN_OMUTA",
      "tags": [
        "normal",
        "shinkansen"
      ]
    },
    {
      "id": "PS_SHIN_TAMANA",
      "name": "Shin-Tamana",
      "names": {
        "en": "Shin-Tamana",
        "ja": "新玉名",
        "zh_hans": "Shin-Tamana"
      },
      "operatorIds": [],
      "lat": 32.9425,
      "lon": 130.57355556,
      "sourceStopIds": [
        "SHIN_TAMANA"
      ],
      "stationGroupId": "SG_SHIN_TAMANA",
      "tags": [
        "normal",
        "shinkansen"
      ]
    },
    {
      "id": "PS_KUMAMOTO",
      "name": "Kumamoto",
      "names": {
        "en": "Kumamoto",
        "ja": "熊本",
        "zh_hans": "Kumamoto"
      },
      "operatorIds": [],
      "lat": 32.789207,
      "lon": 130.688499,
      "sourceStopIds": [
        "KUMAMOTO"
      ],
      "stationGroupId": "SG_KUMAMOTO",
      "tags": [
        "hub",
        "shinkansen"
      ]
    },
    {
      "id": "PS_SHIN_YATSUSHIRO",
      "name": "Shin-Yatsushiro",
      "names": {
        "en": "Shin-Yatsushiro",
        "ja": "新八代",
        "zh_hans": "Shin-Yatsushiro"
      },
      "operatorIds": [],
      "lat": 32.517888,
      "lon": 130.634919,
      "sourceStopIds": [
        "SHIN_YATSUSHIRO"
      ],
      "stationGroupId": "SG_SHIN_YATSUSHIRO",
      "tags": [
        "hub",
        "shinkansen"
      ]
    },
    {
      "id": "PS_SHIN_MINAMATA",
      "name": "Shin-Minamata",
      "names": {
        "en": "Shin-Minamata",
        "ja": "新水俣",
        "zh_hans": "Shin-Minamata"
      },
      "operatorIds": [],
      "lat": 32.210825,
      "lon": 130.428893,
      "sourceStopIds": [
        "SHIN_MINAMATA"
      ],
      "stationGroupId": "SG_SHIN_MINAMATA",
      "tags": [
        "normal",
        "shinkansen"
      ]
    },
    {
      "id": "PS_IZUMI",
      "name": "Izumi",
      "names": {
        "en": "Izumi",
        "ja": "出水",
        "zh_hans": "Izumi"
      },
      "operatorIds": [],
      "lat": 32.089275,
      "lon": 130.357803,
      "sourceStopIds": [
        "IZUMI"
      ],
      "stationGroupId": "SG_IZUMI",
      "tags": [
        "normal",
        "shinkansen"
      ]
    },
    {
      "id": "PS_SENDAI_KYUSHU",
      "name": "Sendai",
      "names": {
        "en": "Sendai",
        "ja": "川内",
        "zh_hans": "Sendai"
      },
      "operatorIds": [],
      "lat": 31.813726,
      "lon": 130.31213,
      "sourceStopIds": [
        "SENDAI_KYUSHU"
      ],
      "stationGroupId": "SG_SENDAI_KYUSHU",
      "tags": [
        "hub",
        "shinkansen"
      ]
    },
    {
      "id": "PS_KAGOSHIMA_CHUO",
      "name": "Kagoshima-Chuo",
      "names": {
        "en": "Kagoshima-Chuo",
        "ja": "鹿児島中央",
        "zh_hans": "Kagoshima-Chuo"
      },
      "operatorIds": [],
      "lat": 31.583727,
      "lon": 130.541789,
      "sourceStopIds": [
        "KAGOSHIMA_CHUO"
      ],
      "stationGroupId": "SG_KAGOSHIMA_CHUO",
      "tags": [
        "hub",
        "shinkansen"
      ]
    },
    {
      "id": "PS_TAKEO_ONSEN",
      "name": "Takeo-Onsen",
      "names": {
        "en": "Takeo-Onsen",
        "ja": "武雄温泉",
        "zh_hans": "Takeo-Onsen"
      },
      "operatorIds": [],
      "lat": 33.196151,
      "lon": 130.022322,
      "sourceStopIds": [
        "TAKEO_ONSEN"
      ],
      "stationGroupId": "SG_TAKEO_ONSEN",
      "tags": [
        "hub",
        "shinkansen"
      ]
    },
    {
      "id": "PS_URESHINO_ONSEN",
      "name": "Ureshino-Onsen",
      "names": {
        "en": "Ureshino-Onsen",
        "ja": "嬉野温泉",
        "zh_hans": "Ureshino-Onsen"
      },
      "operatorIds": [],
      "lat": 33.10655556,
      "lon": 129.99897222,
      "sourceStopIds": [
        "URESHINO_ONSEN"
      ],
      "stationGroupId": "SG_URESHINO_ONSEN",
      "tags": [
        "normal",
        "shinkansen"
      ]
    },
    {
      "id": "PS_SHIN_OMURA",
      "name": "Shin-Omura",
      "names": {
        "en": "Shin-Omura",
        "ja": "新大村",
        "zh_hans": "Shin-Omura"
      },
      "operatorIds": [],
      "lat": 32.93277778,
      "lon": 129.95694444,
      "sourceStopIds": [
        "SHIN_OMURA"
      ],
      "stationGroupId": "SG_SHIN_OMURA",
      "tags": [
        "normal",
        "shinkansen"
      ]
    },
    {
      "id": "PS_ISAHAYA",
      "name": "Isahaya",
      "names": {
        "en": "Isahaya",
        "ja": "諫早",
        "zh_hans": "Isahaya"
      },
      "operatorIds": [],
      "lat": 32.851018,
      "lon": 130.041596,
      "sourceStopIds": [
        "ISAHAYA"
      ],
      "stationGroupId": "SG_ISAHAYA",
      "tags": [
        "hub",
        "shinkansen"
      ]
    },
    {
      "id": "PS_NAGASAKI",
      "name": "Nagasaki",
      "names": {
        "en": "Nagasaki",
        "ja": "長崎",
        "zh_hans": "Nagasaki"
      },
      "operatorIds": [],
      "lat": 32.75275,
      "lon": 129.86905556,
      "sourceStopIds": [
        "NAGASAKI"
      ],
      "stationGroupId": "SG_NAGASAKI",
      "tags": [
        "hub",
        "shinkansen"
      ]
    }
  ],
  "stationGroups": [
    {
      "id": "SG_TOKYO",
      "primaryName": "Tokyo",
      "names": {
        "en": "Tokyo",
        "ja": "東京",
        "zh_hans": "Tokyo"
      },
      "physicalStationIds": [
        "PS_TOKYO"
      ],
      "centroid": {
        "lat": 35.681391,
        "lon": 139.766103
      },
      "category": "hub",
      "labelRank": 100,
      "tags": [
        "shinkansen"
      ]
    },
    {
      "id": "SG_UENO",
      "primaryName": "Ueno",
      "names": {
        "en": "Ueno",
        "ja": "上野",
        "zh_hans": "Ueno"
      },
      "physicalStationIds": [
        "PS_UENO"
      ],
      "centroid": {
        "lat": 35.71379,
        "lon": 139.777043
      },
      "category": "hub",
      "labelRank": 100,
      "tags": [
        "shinkansen"
      ]
    },
    {
      "id": "SG_OMIYA",
      "primaryName": "Omiya",
      "names": {
        "en": "Omiya",
        "ja": "大宮",
        "zh_hans": "Omiya"
      },
      "physicalStationIds": [
        "PS_OMIYA"
      ],
      "centroid": {
        "lat": 35.906439,
        "lon": 139.62405
      },
      "category": "hub",
      "labelRank": 100,
      "tags": [
        "shinkansen"
      ]
    },
    {
      "id": "SG_KUMAGAYA",
      "primaryName": "Kumagaya",
      "names": {
        "en": "Kumagaya",
        "ja": "熊谷",
        "zh_hans": "Kumagaya"
      },
      "physicalStationIds": [
        "PS_KUMAGAYA"
      ],
      "centroid": {
        "lat": 36.139627,
        "lon": 139.389528
      },
      "category": "normal",
      "labelRank": 50,
      "tags": [
        "shinkansen"
      ]
    },
    {
      "id": "SG_HONJO_WASEDA",
      "primaryName": "Honjo-Waseda",
      "names": {
        "en": "Honjo-Waseda",
        "ja": "本庄早稲田",
        "zh_hans": "Honjo-Waseda"
      },
      "physicalStationIds": [
        "PS_HONJO_WASEDA"
      ],
      "centroid": {
        "lat": 36.21883333,
        "lon": 139.1795
      },
      "category": "normal",
      "labelRank": 50,
      "tags": [
        "shinkansen"
      ]
    },
    {
      "id": "SG_TAKASAKI",
      "primaryName": "Takasaki",
      "names": {
        "en": "Takasaki",
        "ja": "高崎",
        "zh_hans": "Takasaki"
      },
      "physicalStationIds": [
        "PS_TAKASAKI"
      ],
      "centroid": {
        "lat": 36.322239,
        "lon": 139.012354
      },
      "category": "hub",
      "labelRank": 100,
      "tags": [
        "shinkansen"
      ]
    },
    {
      "id": "SG_OYAMA",
      "primaryName": "Oyama",
      "names": {
        "en": "Oyama",
        "ja": "小山",
        "zh_hans": "Oyama"
      },
      "physicalStationIds": [
        "PS_OYAMA"
      ],
      "centroid": {
        "lat": 36.312747,
        "lon": 139.806241
      },
      "category": "normal",
      "labelRank": 50,
      "tags": [
        "shinkansen"
      ]
    },
    {
      "id": "SG_UTSUNOMIYA",
      "primaryName": "Utsunomiya",
      "names": {
        "en": "Utsunomiya",
        "ja": "宇都宮",
        "zh_hans": "Utsunomiya"
      },
      "physicalStationIds": [
        "PS_UTSUNOMIYA"
      ],
      "centroid": {
        "lat": 36.559246,
        "lon": 139.898389
      },
      "category": "normal",
      "labelRank": 50,
      "tags": [
        "shinkansen"
      ]
    },
    {
      "id": "SG_NASUSHIOBARA",
      "primaryName": "Nasushiobara",
      "names": {
        "en": "Nasushiobara",
        "ja": "那須塩原",
        "zh_hans": "Nasushiobara"
      },
      "physicalStationIds": [
        "PS_NASUSHIOBARA"
      ],
      "centroid": {
        "lat": 36.931956,
        "lon": 140.020694
      },
      "category": "normal",
      "labelRank": 50,
      "tags": [
        "shinkansen"
      ]
    },
    {
      "id": "SG_SHIN_SHIRAKAWA",
      "primaryName": "Shin-Shirakawa",
      "names": {
        "en": "Shin-Shirakawa",
        "ja": "新白河",
        "zh_hans": "Shin-Shirakawa"
      },
      "physicalStationIds": [
        "PS_SHIN_SHIRAKAWA"
      ],
      "centroid": {
        "lat": 37.12331,
        "lon": 140.188969
      },
      "category": "normal",
      "labelRank": 50,
      "tags": [
        "shinkansen"
      ]
    },
    {
      "id": "SG_KORIYAMA",
      "primaryName": "Koriyama",
      "names": {
        "en": "Koriyama",
        "ja": "郡山",
        "zh_hans": "Koriyama"
      },
      "physicalStationIds": [
        "PS_KORIYAMA"
      ],
      "centroid": {
        "lat": 37.398187,
        "lon": 140.389363
      },
      "category": "normal",
      "labelRank": 50,
      "tags": [
        "shinkansen"
      ]
    },
    {
      "id": "SG_FUKUSHIMA",
      "primaryName": "Fukushima",
      "names": {
        "en": "Fukushima",
        "ja": "福島",
        "zh_hans": "Fukushima"
      },
      "physicalStationIds": [
        "PS_FUKUSHIMA"
      ],
      "centroid": {
        "lat": 37.754123,
        "lon": 140.45968
      },
      "category": "hub",
      "labelRank": 100,
      "tags": [
        "shinkansen"
      ]
    },
    {
      "id": "SG_SHIROISHI_ZAO",
      "primaryName": "Shiroishi-Zao",
      "names": {
        "en": "Shiroishi-Zao",
        "ja": "白石蔵王",
        "zh_hans": "Shiroishi-Zao"
      },
      "physicalStationIds": [
        "PS_SHIROISHI_ZAO"
      ],
      "centroid": {
        "lat": 37.99554444,
        "lon": 140.63308611
      },
      "category": "normal",
      "labelRank": 50,
      "tags": [
        "shinkansen"
      ]
    },
    {
      "id": "SG_SENDAI_TOHOKU",
      "primaryName": "Sendai",
      "names": {
        "en": "Sendai",
        "ja": "仙台",
        "zh_hans": "Sendai"
      },
      "physicalStationIds": [
        "PS_SENDAI_TOHOKU"
      ],
      "centroid": {
        "lat": 38.260749,
        "lon": 140.878514
      },
      "category": "hub",
      "labelRank": 100,
      "tags": [
        "shinkansen"
      ]
    },
    {
      "id": "SG_FURUKAWA",
      "primaryName": "Furukawa",
      "names": {
        "en": "Furukawa",
        "ja": "古川",
        "zh_hans": "Furukawa"
      },
      "physicalStationIds": [
        "PS_FURUKAWA"
      ],
      "centroid": {
        "lat": 38.571192,
        "lon": 140.967876
      },
      "category": "normal",
      "labelRank": 50,
      "tags": [
        "shinkansen"
      ]
    },
    {
      "id": "SG_KURIKOMA_KOGEN",
      "primaryName": "Kurikoma-Kogen",
      "names": {
        "en": "Kurikoma-Kogen",
        "ja": "くりこま高原",
        "zh_hans": "Kurikoma-Kogen"
      },
      "physicalStationIds": [
        "PS_KURIKOMA_KOGEN"
      ],
      "centroid": {
        "lat": 38.74913611,
        "lon": 141.0718
      },
      "category": "normal",
      "labelRank": 50,
      "tags": [
        "shinkansen"
      ]
    },
    {
      "id": "SG_ICHINOSEKI",
      "primaryName": "Ichinoseki",
      "names": {
        "en": "Ichinoseki",
        "ja": "一ノ関",
        "zh_hans": "Ichinoseki"
      },
      "physicalStationIds": [
        "PS_ICHINOSEKI"
      ],
      "centroid": {
        "lat": 38.926514,
        "lon": 141.138177
      },
      "category": "normal",
      "labelRank": 50,
      "tags": [
        "shinkansen"
      ]
    },
    {
      "id": "SG_MIZUSAWA_ESASHI",
      "primaryName": "Mizusawa-Esashi",
      "names": {
        "en": "Mizusawa-Esashi",
        "ja": "水沢江刺",
        "zh_hans": "Mizusawa-Esashi"
      },
      "physicalStationIds": [
        "PS_MIZUSAWA_ESASHI"
      ],
      "centroid": {
        "lat": 39.145325,
        "lon": 141.18873333
      },
      "category": "normal",
      "labelRank": 50,
      "tags": [
        "shinkansen"
      ]
    },
    {
      "id": "SG_KITAKAMI",
      "primaryName": "Kitakami",
      "names": {
        "en": "Kitakami",
        "ja": "北上",
        "zh_hans": "Kitakami"
      },
      "physicalStationIds": [
        "PS_KITAKAMI"
      ],
      "centroid": {
        "lat": 39.281196,
        "lon": 141.121221
      },
      "category": "normal",
      "labelRank": 50,
      "tags": [
        "shinkansen"
      ]
    },
    {
      "id": "SG_SHIN_HANAMAKI",
      "primaryName": "Shin-Hanamaki",
      "names": {
        "en": "Shin-Hanamaki",
        "ja": "新花巻",
        "zh_hans": "Shin-Hanamaki"
      },
      "physicalStationIds": [
        "PS_SHIN_HANAMAKI"
      ],
      "centroid": {
        "lat": 39.405839,
        "lon": 141.17302
      },
      "category": "normal",
      "labelRank": 50,
      "tags": [
        "shinkansen"
      ]
    },
    {
      "id": "SG_MORIOKA",
      "primaryName": "Morioka",
      "names": {
        "en": "Morioka",
        "ja": "盛岡",
        "zh_hans": "Morioka"
      },
      "physicalStationIds": [
        "PS_MORIOKA"
      ],
      "centroid": {
        "lat": 39.701547,
        "lon": 141.136599
      },
      "category": "hub",
      "labelRank": 100,
      "tags": [
        "shinkansen"
      ]
    },
    {
      "id": "SG_IWATE_NUMAKUNAI",
      "primaryName": "Iwate-Numakunai",
      "names": {
        "en": "Iwate-Numakunai",
        "ja": "いわて沼宮内",
        "zh_hans": "Iwate-Numakunai"
      },
      "physicalStationIds": [
        "PS_IWATE_NUMAKUNAI"
      ],
      "centroid": {
        "lat": 39.960155,
        "lon": 141.216955
      },
      "category": "normal",
      "labelRank": 50,
      "tags": [
        "shinkansen"
      ]
    },
    {
      "id": "SG_NINOHE",
      "primaryName": "Ninohe",
      "names": {
        "en": "Ninohe",
        "ja": "二戸",
        "zh_hans": "Ninohe"
      },
      "physicalStationIds": [
        "PS_NINOHE"
      ],
      "centroid": {
        "lat": 40.25997,
        "lon": 141.286211
      },
      "category": "normal",
      "labelRank": 50,
      "tags": [
        "shinkansen"
      ]
    },
    {
      "id": "SG_HACHINOHE",
      "primaryName": "Hachinohe",
      "names": {
        "en": "Hachinohe",
        "ja": "八戸",
        "zh_hans": "Hachinohe"
      },
      "physicalStationIds": [
        "PS_HACHINOHE"
      ],
      "centroid": {
        "lat": 40.5092,
        "lon": 141.431499
      },
      "category": "normal",
      "labelRank": 50,
      "tags": [
        "shinkansen"
      ]
    },
    {
      "id": "SG_SHICHINOHE_TOWADA",
      "primaryName": "Shichinohe-Towada",
      "names": {
        "en": "Shichinohe-Towada",
        "ja": "七戸十和田",
        "zh_hans": "Shichinohe-Towada"
      },
      "physicalStationIds": [
        "PS_SHICHINOHE_TOWADA"
      ],
      "centroid": {
        "lat": 40.71986111,
        "lon": 141.15402778
      },
      "category": "normal",
      "labelRank": 50,
      "tags": [
        "shinkansen"
      ]
    },
    {
      "id": "SG_SHIN_AOMORI",
      "primaryName": "Shin-Aomori",
      "names": {
        "en": "Shin-Aomori",
        "ja": "新青森",
        "zh_hans": "Shin-Aomori"
      },
      "physicalStationIds": [
        "PS_SHIN_AOMORI"
      ],
      "centroid": {
        "lat": 40.8275,
        "lon": 140.693472
      },
      "category": "hub",
      "labelRank": 100,
      "tags": [
        "shinkansen"
      ]
    },
    {
      "id": "SG_OKU_TSUGARU_IMABETSU",
      "primaryName": "Oku-Tsugaru-Imabetsu",
      "names": {
        "en": "Oku-Tsugaru-Imabetsu",
        "ja": "奥津軽いまべつ",
        "zh_hans": "Oku-Tsugaru-Imabetsu"
      },
      "physicalStationIds": [
        "PS_OKU_TSUGARU_IMABETSU"
      ],
      "centroid": {
        "lat": 41.14508333,
        "lon": 140.51544444
      },
      "category": "normal",
      "labelRank": 50,
      "tags": [
        "shinkansen"
      ]
    },
    {
      "id": "SG_KIKONAI",
      "primaryName": "Kikonai",
      "names": {
        "en": "Kikonai",
        "ja": "木古内",
        "zh_hans": "Kikonai"
      },
      "physicalStationIds": [
        "PS_KIKONAI"
      ],
      "centroid": {
        "lat": 41.677642,
        "lon": 140.434004
      },
      "category": "normal",
      "labelRank": 50,
      "tags": [
        "shinkansen"
      ]
    },
    {
      "id": "SG_SHIN_HAKODATE_HOKUTO",
      "primaryName": "Shin-Hakodate-Hokuto",
      "names": {
        "en": "Shin-Hakodate-Hokuto",
        "ja": "新函館北斗",
        "zh_hans": "Shin-Hakodate-Hokuto"
      },
      "physicalStationIds": [
        "PS_SHIN_HAKODATE_HOKUTO"
      ],
      "centroid": {
        "lat": 41.9054,
        "lon": 140.646525
      },
      "category": "hub",
      "labelRank": 100,
      "tags": [
        "shinkansen"
      ]
    },
    {
      "id": "SG_YONEZAWA",
      "primaryName": "Yonezawa",
      "names": {
        "en": "Yonezawa",
        "ja": "米沢",
        "zh_hans": "Yonezawa"
      },
      "physicalStationIds": [
        "PS_YONEZAWA"
      ],
      "centroid": {
        "lat": 37.909478,
        "lon": 140.128209
      },
      "category": "normal",
      "labelRank": 50,
      "tags": [
        "shinkansen"
      ]
    },
    {
      "id": "SG_TAKAHATA",
      "primaryName": "Takahata",
      "names": {
        "en": "Takahata",
        "ja": "高畠",
        "zh_hans": "Takahata"
      },
      "physicalStationIds": [
        "PS_TAKAHATA"
      ],
      "centroid": {
        "lat": 37.992314,
        "lon": 140.15281
      },
      "category": "normal",
      "labelRank": 50,
      "tags": [
        "shinkansen"
      ]
    },
    {
      "id": "SG_AKAYU",
      "primaryName": "Akayu",
      "names": {
        "en": "Akayu",
        "ja": "赤湯",
        "zh_hans": "Akayu"
      },
      "physicalStationIds": [
        "PS_AKAYU"
      ],
      "centroid": {
        "lat": 38.047081,
        "lon": 140.148978
      },
      "category": "normal",
      "labelRank": 50,
      "tags": [
        "shinkansen"
      ]
    },
    {
      "id": "SG_KAMINOYAMA_ONSEN",
      "primaryName": "Kaminoyama-Onsen",
      "names": {
        "en": "Kaminoyama-Onsen",
        "ja": "かみのやま温泉",
        "zh_hans": "Kaminoyama-Onsen"
      },
      "physicalStationIds": [
        "PS_KAMINOYAMA_ONSEN"
      ],
      "centroid": {
        "lat": 38.152259,
        "lon": 140.27867
      },
      "category": "normal",
      "labelRank": 50,
      "tags": [
        "shinkansen"
      ]
    },
    {
      "id": "SG_YAMAGATA",
      "primaryName": "Yamagata",
      "names": {
        "en": "Yamagata",
        "ja": "山形",
        "zh_hans": "Yamagata"
      },
      "physicalStationIds": [
        "PS_YAMAGATA"
      ],
      "centroid": {
        "lat": 38.248098,
        "lon": 140.327253
      },
      "category": "hub",
      "labelRank": 100,
      "tags": [
        "shinkansen"
      ]
    },
    {
      "id": "SG_TENDO",
      "primaryName": "Tendo",
      "names": {
        "en": "Tendo",
        "ja": "天童",
        "zh_hans": "Tendo"
      },
      "physicalStationIds": [
        "PS_TENDO"
      ],
      "centroid": {
        "lat": 38.35989,
        "lon": 140.369303
      },
      "category": "normal",
      "labelRank": 50,
      "tags": [
        "shinkansen"
      ]
    },
    {
      "id": "SG_SAKURANBO_HIGASHINE",
      "primaryName": "Sakuranbo-Higashine",
      "names": {
        "en": "Sakuranbo-Higashine",
        "ja": "さくらんぼ東根",
        "zh_hans": "Sakuranbo-Higashine"
      },
      "physicalStationIds": [
        "PS_SAKURANBO_HIGASHINE"
      ],
      "centroid": {
        "lat": 38.42806,
        "lon": 140.380677
      },
      "category": "normal",
      "labelRank": 50,
      "tags": [
        "shinkansen"
      ]
    },
    {
      "id": "SG_MURAYAMA",
      "primaryName": "Murayama",
      "names": {
        "en": "Murayama",
        "ja": "村山",
        "zh_hans": "Murayama"
      },
      "physicalStationIds": [
        "PS_MURAYAMA"
      ],
      "centroid": {
        "lat": 38.477078,
        "lon": 140.386399
      },
      "category": "normal",
      "labelRank": 50,
      "tags": [
        "shinkansen"
      ]
    },
    {
      "id": "SG_OISHIDA",
      "primaryName": "Oishida",
      "names": {
        "en": "Oishida",
        "ja": "大石田",
        "zh_hans": "Oishida"
      },
      "physicalStationIds": [
        "PS_OISHIDA"
      ],
      "centroid": {
        "lat": 38.595916,
        "lon": 140.375349
      },
      "category": "normal",
      "labelRank": 50,
      "tags": [
        "shinkansen"
      ]
    },
    {
      "id": "SG_SHINJO",
      "primaryName": "Shinjo",
      "names": {
        "en": "Shinjo",
        "ja": "新庄",
        "zh_hans": "Shinjo"
      },
      "physicalStationIds": [
        "PS_SHINJO"
      ],
      "centroid": {
        "lat": 38.76256,
        "lon": 140.306064
      },
      "category": "hub",
      "labelRank": 100,
      "tags": [
        "shinkansen"
      ]
    },
    {
      "id": "SG_SHIZUKUISHI",
      "primaryName": "Shizukuishi",
      "names": {
        "en": "Shizukuishi",
        "ja": "雫石",
        "zh_hans": "Shizukuishi"
      },
      "physicalStationIds": [
        "PS_SHIZUKUISHI"
      ],
      "centroid": {
        "lat": 39.689244,
        "lon": 140.974762
      },
      "category": "normal",
      "labelRank": 50,
      "tags": [
        "shinkansen"
      ]
    },
    {
      "id": "SG_TAZAWAKO",
      "primaryName": "Tazawako",
      "names": {
        "en": "Tazawako",
        "ja": "田沢湖",
        "zh_hans": "Tazawako"
      },
      "physicalStationIds": [
        "PS_TAZAWAKO"
      ],
      "centroid": {
        "lat": 39.700363,
        "lon": 140.722139
      },
      "category": "normal",
      "labelRank": 50,
      "tags": [
        "shinkansen"
      ]
    },
    {
      "id": "SG_KAKUNODATE",
      "primaryName": "Kakunodate",
      "names": {
        "en": "Kakunodate",
        "ja": "角館",
        "zh_hans": "Kakunodate"
      },
      "physicalStationIds": [
        "PS_KAKUNODATE"
      ],
      "centroid": {
        "lat": 39.591716,
        "lon": 140.570988
      },
      "category": "normal",
      "labelRank": 50,
      "tags": [
        "shinkansen"
      ]
    },
    {
      "id": "SG_OMAGARI",
      "primaryName": "Omagari",
      "names": {
        "en": "Omagari",
        "ja": "大曲",
        "zh_hans": "Omagari"
      },
      "physicalStationIds": [
        "PS_OMAGARI"
      ],
      "centroid": {
        "lat": 39.465712,
        "lon": 140.479628
      },
      "category": "hub",
      "labelRank": 100,
      "tags": [
        "shinkansen"
      ]
    },
    {
      "id": "SG_AKITA",
      "primaryName": "Akita",
      "names": {
        "en": "Akita",
        "ja": "秋田",
        "zh_hans": "Akita"
      },
      "physicalStationIds": [
        "PS_AKITA"
      ],
      "centroid": {
        "lat": 39.716748,
        "lon": 140.129931
      },
      "category": "hub",
      "labelRank": 100,
      "tags": [
        "shinkansen"
      ]
    },
    {
      "id": "SG_JOMO_KOGEN",
      "primaryName": "Jomo-Kogen",
      "names": {
        "en": "Jomo-Kogen",
        "ja": "上毛高原",
        "zh_hans": "Jomo-Kogen"
      },
      "physicalStationIds": [
        "PS_JOMO_KOGEN"
      ],
      "centroid": {
        "lat": 36.69322222,
        "lon": 138.97761111
      },
      "category": "normal",
      "labelRank": 50,
      "tags": [
        "shinkansen"
      ]
    },
    {
      "id": "SG_ECHIGO_YUZAWA",
      "primaryName": "Echigo-Yuzawa",
      "names": {
        "en": "Echigo-Yuzawa",
        "ja": "越後湯沢",
        "zh_hans": "Echigo-Yuzawa"
      },
      "physicalStationIds": [
        "PS_ECHIGO_YUZAWA"
      ],
      "centroid": {
        "lat": 36.935799,
        "lon": 138.809227
      },
      "category": "hub",
      "labelRank": 100,
      "tags": [
        "shinkansen"
      ]
    },
    {
      "id": "SG_GALA_YUZAWA",
      "primaryName": "Gala Yuzawa",
      "names": {
        "en": "Gala Yuzawa",
        "ja": "ガーラ湯沢",
        "zh_hans": "Gala Yuzawa"
      },
      "physicalStationIds": [
        "PS_GALA_YUZAWA"
      ],
      "centroid": {
        "lat": 36.95088889,
        "lon": 138.79952778
      },
      "category": "normal",
      "labelRank": 50,
      "tags": [
        "shinkansen"
      ]
    },
    {
      "id": "SG_URASA",
      "primaryName": "Urasa",
      "names": {
        "en": "Urasa",
        "ja": "浦佐",
        "zh_hans": "Urasa"
      },
      "physicalStationIds": [
        "PS_URASA"
      ],
      "centroid": {
        "lat": 37.167488,
        "lon": 138.922798
      },
      "category": "normal",
      "labelRank": 50,
      "tags": [
        "shinkansen"
      ]
    },
    {
      "id": "SG_NAGAOKA",
      "primaryName": "Nagaoka",
      "names": {
        "en": "Nagaoka",
        "ja": "長岡",
        "zh_hans": "Nagaoka"
      },
      "physicalStationIds": [
        "PS_NAGAOKA"
      ],
      "centroid": {
        "lat": 37.447787,
        "lon": 138.853927
      },
      "category": "hub",
      "labelRank": 100,
      "tags": [
        "shinkansen"
      ]
    },
    {
      "id": "SG_TSUBAME_SANJO",
      "primaryName": "Tsubame-Sanjo",
      "names": {
        "en": "Tsubame-Sanjo",
        "ja": "燕三条",
        "zh_hans": "Tsubame-Sanjo"
      },
      "physicalStationIds": [
        "PS_TSUBAME_SANJO"
      ],
      "centroid": {
        "lat": 37.648824,
        "lon": 138.939274
      },
      "category": "normal",
      "labelRank": 50,
      "tags": [
        "shinkansen"
      ]
    },
    {
      "id": "SG_NIIGATA",
      "primaryName": "Niigata",
      "names": {
        "en": "Niigata",
        "ja": "新潟",
        "zh_hans": "Niigata"
      },
      "physicalStationIds": [
        "PS_NIIGATA"
      ],
      "centroid": {
        "lat": 37.912299,
        "lon": 139.060869
      },
      "category": "hub",
      "labelRank": 100,
      "tags": [
        "shinkansen"
      ]
    },
    {
      "id": "SG_ANNAKA_HARUNA",
      "primaryName": "Annaka-Haruna",
      "names": {
        "en": "Annaka-Haruna",
        "ja": "安中榛名",
        "zh_hans": "Annaka-Haruna"
      },
      "physicalStationIds": [
        "PS_ANNAKA_HARUNA"
      ],
      "centroid": {
        "lat": 36.36241667,
        "lon": 138.84958333
      },
      "category": "normal",
      "labelRank": 50,
      "tags": [
        "shinkansen"
      ]
    },
    {
      "id": "SG_KARUIZAWA",
      "primaryName": "Karuizawa",
      "names": {
        "en": "Karuizawa",
        "ja": "軽井沢",
        "zh_hans": "Karuizawa"
      },
      "physicalStationIds": [
        "PS_KARUIZAWA"
      ],
      "centroid": {
        "lat": 36.342889,
        "lon": 138.635096
      },
      "category": "normal",
      "labelRank": 50,
      "tags": [
        "shinkansen"
      ]
    },
    {
      "id": "SG_SAKUDAIRA",
      "primaryName": "Sakudaira",
      "names": {
        "en": "Sakudaira",
        "ja": "佐久平",
        "zh_hans": "Sakudaira"
      },
      "physicalStationIds": [
        "PS_SAKUDAIRA"
      ],
      "centroid": {
        "lat": 36.277929,
        "lon": 138.464367
      },
      "category": "normal",
      "labelRank": 50,
      "tags": [
        "shinkansen"
      ]
    },
    {
      "id": "SG_UEDA",
      "primaryName": "Ueda",
      "names": {
        "en": "Ueda",
        "ja": "上田",
        "zh_hans": "Ueda"
      },
      "physicalStationIds": [
        "PS_UEDA"
      ],
      "centroid": {
        "lat": 36.396579,
        "lon": 138.249298
      },
      "category": "normal",
      "labelRank": 50,
      "tags": [
        "shinkansen"
      ]
    },
    {
      "id": "SG_NAGANO",
      "primaryName": "Nagano",
      "names": {
        "en": "Nagano",
        "ja": "長野",
        "zh_hans": "Nagano"
      },
      "physicalStationIds": [
        "PS_NAGANO"
      ],
      "centroid": {
        "lat": 36.643307,
        "lon": 138.189101
      },
      "category": "hub",
      "labelRank": 100,
      "tags": [
        "shinkansen"
      ]
    },
    {
      "id": "SG_IIYAMA",
      "primaryName": "Iiyama",
      "names": {
        "en": "Iiyama",
        "ja": "飯山",
        "zh_hans": "Iiyama"
      },
      "physicalStationIds": [
        "PS_IIYAMA"
      ],
      "centroid": {
        "lat": 36.847642,
        "lon": 138.359335
      },
      "category": "normal",
      "labelRank": 50,
      "tags": [
        "shinkansen"
      ]
    },
    {
      "id": "SG_JOETSUMYOKO",
      "primaryName": "Joetsumyoko",
      "names": {
        "en": "Joetsumyoko",
        "ja": "上越妙高",
        "zh_hans": "Joetsumyoko"
      },
      "physicalStationIds": [
        "PS_JOETSUMYOKO"
      ],
      "centroid": {
        "lat": 37.081813,
        "lon": 138.249476
      },
      "category": "hub",
      "labelRank": 100,
      "tags": [
        "shinkansen"
      ]
    },
    {
      "id": "SG_ITOIGAWA",
      "primaryName": "Itoigawa",
      "names": {
        "en": "Itoigawa",
        "ja": "糸魚川",
        "zh_hans": "Itoigawa"
      },
      "physicalStationIds": [
        "PS_ITOIGAWA"
      ],
      "centroid": {
        "lat": 37.043631,
        "lon": 137.861311
      },
      "category": "normal",
      "labelRank": 50,
      "tags": [
        "shinkansen"
      ]
    },
    {
      "id": "SG_KUROBE_UNAZUKIONSEN",
      "primaryName": "Kurobe-Unazukionsen",
      "names": {
        "en": "Kurobe-Unazukionsen",
        "ja": "黒部宇奈月温泉",
        "zh_hans": "Kurobe-Unazukionsen"
      },
      "physicalStationIds": [
        "PS_KUROBE_UNAZUKIONSEN"
      ],
      "centroid": {
        "lat": 36.87472222,
        "lon": 137.48222222
      },
      "category": "normal",
      "labelRank": 50,
      "tags": [
        "shinkansen"
      ]
    },
    {
      "id": "SG_TOYAMA",
      "primaryName": "Toyama",
      "names": {
        "en": "Toyama",
        "ja": "富山",
        "zh_hans": "Toyama"
      },
      "physicalStationIds": [
        "PS_TOYAMA"
      ],
      "centroid": {
        "lat": 36.701384,
        "lon": 137.213091
      },
      "category": "hub",
      "labelRank": 100,
      "tags": [
        "shinkansen"
      ]
    },
    {
      "id": "SG_SHIN_TAKAOKA",
      "primaryName": "Shin-Takaoka",
      "names": {
        "en": "Shin-Takaoka",
        "ja": "新高岡",
        "zh_hans": "Shin-Takaoka"
      },
      "physicalStationIds": [
        "PS_SHIN_TAKAOKA"
      ],
      "centroid": {
        "lat": 36.727004,
        "lon": 137.010459
      },
      "category": "normal",
      "labelRank": 50,
      "tags": [
        "shinkansen"
      ]
    },
    {
      "id": "SG_KANAZAWA",
      "primaryName": "Kanazawa",
      "names": {
        "en": "Kanazawa",
        "ja": "金沢",
        "zh_hans": "Kanazawa"
      },
      "physicalStationIds": [
        "PS_KANAZAWA"
      ],
      "centroid": {
        "lat": 36.578117,
        "lon": 136.648166
      },
      "category": "hub",
      "labelRank": 100,
      "tags": [
        "shinkansen"
      ]
    },
    {
      "id": "SG_KOMATSU",
      "primaryName": "Komatsu",
      "names": {
        "en": "Komatsu",
        "ja": "小松",
        "zh_hans": "Komatsu"
      },
      "physicalStationIds": [
        "PS_KOMATSU"
      ],
      "centroid": {
        "lat": 36.402545,
        "lon": 136.452926
      },
      "category": "normal",
      "labelRank": 50,
      "tags": [
        "shinkansen"
      ]
    },
    {
      "id": "SG_KAGAONSEN",
      "primaryName": "Kagaonsen",
      "names": {
        "en": "Kagaonsen",
        "ja": "加賀温泉",
        "zh_hans": "Kagaonsen"
      },
      "physicalStationIds": [
        "PS_KAGAONSEN"
      ],
      "centroid": {
        "lat": 36.320562,
        "lon": 136.350337
      },
      "category": "normal",
      "labelRank": 50,
      "tags": [
        "shinkansen"
      ]
    },
    {
      "id": "SG_AWARAONSEN",
      "primaryName": "Awaraonsen",
      "names": {
        "en": "Awaraonsen",
        "ja": "芦原温泉",
        "zh_hans": "Awaraonsen"
      },
      "physicalStationIds": [
        "PS_AWARAONSEN"
      ],
      "centroid": {
        "lat": 36.214542,
        "lon": 136.235069
      },
      "category": "normal",
      "labelRank": 50,
      "tags": [
        "shinkansen"
      ]
    },
    {
      "id": "SG_FUKUI",
      "primaryName": "Fukui",
      "names": {
        "en": "Fukui",
        "ja": "福井",
        "zh_hans": "Fukui"
      },
      "physicalStationIds": [
        "PS_FUKUI"
      ],
      "centroid": {
        "lat": 36.062057,
        "lon": 136.223516
      },
      "category": "hub",
      "labelRank": 100,
      "tags": [
        "shinkansen"
      ]
    },
    {
      "id": "SG_ECHIZEN_TAKEFU",
      "primaryName": "Echizen-Takefu",
      "names": {
        "en": "Echizen-Takefu",
        "ja": "越前たけふ",
        "zh_hans": "Echizen-Takefu"
      },
      "physicalStationIds": [
        "PS_ECHIZEN_TAKEFU"
      ],
      "centroid": {
        "lat": 35.89566667,
        "lon": 136.19888889
      },
      "category": "normal",
      "labelRank": 50,
      "tags": [
        "shinkansen"
      ]
    },
    {
      "id": "SG_TSURUGA",
      "primaryName": "Tsuruga",
      "names": {
        "en": "Tsuruga",
        "ja": "敦賀",
        "zh_hans": "Tsuruga"
      },
      "physicalStationIds": [
        "PS_TSURUGA"
      ],
      "centroid": {
        "lat": 35.644767,
        "lon": 136.076488
      },
      "category": "hub",
      "labelRank": 100,
      "tags": [
        "shinkansen"
      ]
    },
    {
      "id": "SG_SHINAGAWA",
      "primaryName": "Shinagawa",
      "names": {
        "en": "Shinagawa",
        "ja": "品川",
        "zh_hans": "Shinagawa"
      },
      "physicalStationIds": [
        "PS_SHINAGAWA"
      ],
      "centroid": {
        "lat": 35.62876,
        "lon": 139.738999
      },
      "category": "hub",
      "labelRank": 100,
      "tags": [
        "shinkansen"
      ]
    },
    {
      "id": "SG_SHIN_YOKOHAMA",
      "primaryName": "Shin-Yokohama",
      "names": {
        "en": "Shin-Yokohama",
        "ja": "新横浜",
        "zh_hans": "Shin-Yokohama"
      },
      "physicalStationIds": [
        "PS_SHIN_YOKOHAMA"
      ],
      "centroid": {
        "lat": 35.506824,
        "lon": 139.617348
      },
      "category": "hub",
      "labelRank": 100,
      "tags": [
        "shinkansen"
      ]
    },
    {
      "id": "SG_ODAWARA",
      "primaryName": "Odawara",
      "names": {
        "en": "Odawara",
        "ja": "小田原",
        "zh_hans": "Odawara"
      },
      "physicalStationIds": [
        "PS_ODAWARA"
      ],
      "centroid": {
        "lat": 35.256225,
        "lon": 139.155772
      },
      "category": "normal",
      "labelRank": 50,
      "tags": [
        "shinkansen"
      ]
    },
    {
      "id": "SG_ATAMI",
      "primaryName": "Atami",
      "names": {
        "en": "Atami",
        "ja": "熱海",
        "zh_hans": "Atami"
      },
      "physicalStationIds": [
        "PS_ATAMI"
      ],
      "centroid": {
        "lat": 35.103573,
        "lon": 139.077679
      },
      "category": "normal",
      "labelRank": 50,
      "tags": [
        "shinkansen"
      ]
    },
    {
      "id": "SG_MISHIMA",
      "primaryName": "Mishima",
      "names": {
        "en": "Mishima",
        "ja": "三島",
        "zh_hans": "Mishima"
      },
      "physicalStationIds": [
        "PS_MISHIMA"
      ],
      "centroid": {
        "lat": 35.126253,
        "lon": 138.911133
      },
      "category": "normal",
      "labelRank": 50,
      "tags": [
        "shinkansen"
      ]
    },
    {
      "id": "SG_SHIN_FUJI",
      "primaryName": "Shin-Fuji",
      "names": {
        "en": "Shin-Fuji",
        "ja": "新富士",
        "zh_hans": "Shin-Fuji"
      },
      "physicalStationIds": [
        "PS_SHIN_FUJI"
      ],
      "centroid": {
        "lat": 35.142,
        "lon": 138.66336111
      },
      "category": "normal",
      "labelRank": 50,
      "tags": [
        "shinkansen"
      ]
    },
    {
      "id": "SG_SHIZUOKA",
      "primaryName": "Shizuoka",
      "names": {
        "en": "Shizuoka",
        "ja": "静岡",
        "zh_hans": "Shizuoka"
      },
      "physicalStationIds": [
        "PS_SHIZUOKA"
      ],
      "centroid": {
        "lat": 34.971629,
        "lon": 138.388579
      },
      "category": "hub",
      "labelRank": 100,
      "tags": [
        "shinkansen"
      ]
    },
    {
      "id": "SG_KAKEGAWA",
      "primaryName": "Kakegawa",
      "names": {
        "en": "Kakegawa",
        "ja": "掛川",
        "zh_hans": "Kakegawa"
      },
      "physicalStationIds": [
        "PS_KAKEGAWA"
      ],
      "centroid": {
        "lat": 34.769463,
        "lon": 138.014937
      },
      "category": "normal",
      "labelRank": 50,
      "tags": [
        "shinkansen"
      ]
    },
    {
      "id": "SG_HAMAMATSU",
      "primaryName": "Hamamatsu",
      "names": {
        "en": "Hamamatsu",
        "ja": "浜松",
        "zh_hans": "Hamamatsu"
      },
      "physicalStationIds": [
        "PS_HAMAMATSU"
      ],
      "centroid": {
        "lat": 34.703866,
        "lon": 137.734759
      },
      "category": "hub",
      "labelRank": 100,
      "tags": [
        "shinkansen"
      ]
    },
    {
      "id": "SG_TOYOHASHI",
      "primaryName": "Toyohashi",
      "names": {
        "en": "Toyohashi",
        "ja": "豊橋",
        "zh_hans": "Toyohashi"
      },
      "physicalStationIds": [
        "PS_TOYOHASHI"
      ],
      "centroid": {
        "lat": 34.762734,
        "lon": 137.382128
      },
      "category": "normal",
      "labelRank": 50,
      "tags": [
        "shinkansen"
      ]
    },
    {
      "id": "SG_MIKAWA_ANJO",
      "primaryName": "Mikawa-Anjo",
      "names": {
        "en": "Mikawa-Anjo",
        "ja": "三河安城",
        "zh_hans": "Mikawa-Anjo"
      },
      "physicalStationIds": [
        "PS_MIKAWA_ANJO"
      ],
      "centroid": {
        "lat": 34.96968,
        "lon": 137.060918
      },
      "category": "normal",
      "labelRank": 50,
      "tags": [
        "shinkansen"
      ]
    },
    {
      "id": "SG_NAGOYA",
      "primaryName": "Nagoya",
      "names": {
        "en": "Nagoya",
        "ja": "名古屋",
        "zh_hans": "Nagoya"
      },
      "physicalStationIds": [
        "PS_NAGOYA"
      ],
      "centroid": {
        "lat": 35.170694,
        "lon": 136.881637
      },
      "category": "hub",
      "labelRank": 100,
      "tags": [
        "shinkansen"
      ]
    },
    {
      "id": "SG_GIFU_HASHIMA",
      "primaryName": "Gifu-Hashima",
      "names": {
        "en": "Gifu-Hashima",
        "ja": "岐阜羽島",
        "zh_hans": "Gifu-Hashima"
      },
      "physicalStationIds": [
        "PS_GIFU_HASHIMA"
      ],
      "centroid": {
        "lat": 35.31583333,
        "lon": 136.68555556
      },
      "category": "normal",
      "labelRank": 50,
      "tags": [
        "shinkansen"
      ]
    },
    {
      "id": "SG_MAIBARA",
      "primaryName": "Maibara",
      "names": {
        "en": "Maibara",
        "ja": "米原",
        "zh_hans": "Maibara"
      },
      "physicalStationIds": [
        "PS_MAIBARA"
      ],
      "centroid": {
        "lat": 35.314657,
        "lon": 136.289992
      },
      "category": "hub",
      "labelRank": 100,
      "tags": [
        "shinkansen"
      ]
    },
    {
      "id": "SG_KYOTO",
      "primaryName": "Kyoto",
      "names": {
        "en": "Kyoto",
        "ja": "京都",
        "zh_hans": "Kyoto"
      },
      "physicalStationIds": [
        "PS_KYOTO"
      ],
      "centroid": {
        "lat": 34.985465,
        "lon": 135.757748
      },
      "category": "hub",
      "labelRank": 100,
      "tags": [
        "shinkansen"
      ]
    },
    {
      "id": "SG_SHIN_OSAKA",
      "primaryName": "Shin-Osaka",
      "names": {
        "en": "Shin-Osaka",
        "ja": "新大阪",
        "zh_hans": "Shin-Osaka"
      },
      "physicalStationIds": [
        "PS_SHIN_OSAKA"
      ],
      "centroid": {
        "lat": 34.734136,
        "lon": 135.501852
      },
      "category": "hub",
      "labelRank": 100,
      "tags": [
        "shinkansen"
      ]
    },
    {
      "id": "SG_SHIN_KOBE",
      "primaryName": "Shin-Kobe",
      "names": {
        "en": "Shin-Kobe",
        "ja": "新神戸",
        "zh_hans": "Shin-Kobe"
      },
      "physicalStationIds": [
        "PS_SHIN_KOBE"
      ],
      "centroid": {
        "lat": 34.706417,
        "lon": 135.195758
      },
      "category": "hub",
      "labelRank": 100,
      "tags": [
        "shinkansen"
      ]
    },
    {
      "id": "SG_NISHI_AKASHI",
      "primaryName": "Nishi-Akashi",
      "names": {
        "en": "Nishi-Akashi",
        "ja": "西明石",
        "zh_hans": "Nishi-Akashi"
      },
      "physicalStationIds": [
        "PS_NISHI_AKASHI"
      ],
      "centroid": {
        "lat": 34.66591,
        "lon": 134.960151
      },
      "category": "normal",
      "labelRank": 50,
      "tags": [
        "shinkansen"
      ]
    },
    {
      "id": "SG_HIMEJI",
      "primaryName": "Himeji",
      "names": {
        "en": "Himeji",
        "ja": "姫路",
        "zh_hans": "Himeji"
      },
      "physicalStationIds": [
        "PS_HIMEJI"
      ],
      "centroid": {
        "lat": 34.827659,
        "lon": 134.690769
      },
      "category": "hub",
      "labelRank": 100,
      "tags": [
        "shinkansen"
      ]
    },
    {
      "id": "SG_AIOI",
      "primaryName": "Aioi",
      "names": {
        "en": "Aioi",
        "ja": "相生",
        "zh_hans": "Aioi"
      },
      "physicalStationIds": [
        "PS_AIOI"
      ],
      "centroid": {
        "lat": 34.818052,
        "lon": 134.47341
      },
      "category": "normal",
      "labelRank": 50,
      "tags": [
        "shinkansen"
      ]
    },
    {
      "id": "SG_OKAYAMA",
      "primaryName": "Okayama",
      "names": {
        "en": "Okayama",
        "ja": "岡山",
        "zh_hans": "Okayama"
      },
      "physicalStationIds": [
        "PS_OKAYAMA"
      ],
      "centroid": {
        "lat": 34.666572,
        "lon": 133.918552
      },
      "category": "hub",
      "labelRank": 100,
      "tags": [
        "shinkansen"
      ]
    },
    {
      "id": "SG_SHIN_KURASHIKI",
      "primaryName": "Shin-Kurashiki",
      "names": {
        "en": "Shin-Kurashiki",
        "ja": "新倉敷",
        "zh_hans": "Shin-Kurashiki"
      },
      "physicalStationIds": [
        "PS_SHIN_KURASHIKI"
      ],
      "centroid": {
        "lat": 34.56509,
        "lon": 133.678344
      },
      "category": "normal",
      "labelRank": 50,
      "tags": [
        "shinkansen"
      ]
    },
    {
      "id": "SG_FUKUYAMA",
      "primaryName": "Fukuyama",
      "names": {
        "en": "Fukuyama",
        "ja": "福山",
        "zh_hans": "Fukuyama"
      },
      "physicalStationIds": [
        "PS_FUKUYAMA"
      ],
      "centroid": {
        "lat": 34.489291,
        "lon": 133.361429
      },
      "category": "hub",
      "labelRank": 100,
      "tags": [
        "shinkansen"
      ]
    },
    {
      "id": "SG_SHIN_ONOMICHI",
      "primaryName": "Shin-Onomichi",
      "names": {
        "en": "Shin-Onomichi",
        "ja": "新尾道",
        "zh_hans": "Shin-Onomichi"
      },
      "physicalStationIds": [
        "PS_SHIN_ONOMICHI"
      ],
      "centroid": {
        "lat": 34.43008333,
        "lon": 133.19033333
      },
      "category": "normal",
      "labelRank": 50,
      "tags": [
        "shinkansen"
      ]
    },
    {
      "id": "SG_MIHARA",
      "primaryName": "Mihara",
      "names": {
        "en": "Mihara",
        "ja": "三原",
        "zh_hans": "Mihara"
      },
      "physicalStationIds": [
        "PS_MIHARA"
      ],
      "centroid": {
        "lat": 34.400486,
        "lon": 133.083049
      },
      "category": "normal",
      "labelRank": 50,
      "tags": [
        "shinkansen"
      ]
    },
    {
      "id": "SG_HIGASHI_HIROSHIMA",
      "primaryName": "Higashi-Hiroshima",
      "names": {
        "en": "Higashi-Hiroshima",
        "ja": "東広島",
        "zh_hans": "Higashi-Hiroshima"
      },
      "physicalStationIds": [
        "PS_HIGASHI_HIROSHIMA"
      ],
      "centroid": {
        "lat": 34.38936111,
        "lon": 132.75977778
      },
      "category": "normal",
      "labelRank": 50,
      "tags": [
        "shinkansen"
      ]
    },
    {
      "id": "SG_HIROSHIMA",
      "primaryName": "Hiroshima",
      "names": {
        "en": "Hiroshima",
        "ja": "広島",
        "zh_hans": "Hiroshima"
      },
      "physicalStationIds": [
        "PS_HIROSHIMA"
      ],
      "centroid": {
        "lat": 34.397446,
        "lon": 132.475593
      },
      "category": "hub",
      "labelRank": 100,
      "tags": [
        "shinkansen"
      ]
    },
    {
      "id": "SG_SHIN_IWAKUNI",
      "primaryName": "Shin-Iwakuni",
      "names": {
        "en": "Shin-Iwakuni",
        "ja": "清流新岩国",
        "zh_hans": "Shin-Iwakuni"
      },
      "physicalStationIds": [
        "PS_SHIN_IWAKUNI"
      ],
      "centroid": {
        "lat": 34.162639,
        "lon": 132.14764
      },
      "category": "normal",
      "labelRank": 50,
      "tags": [
        "shinkansen"
      ]
    },
    {
      "id": "SG_TOKUYAMA",
      "primaryName": "Tokuyama",
      "names": {
        "en": "Tokuyama",
        "ja": "徳山",
        "zh_hans": "Tokuyama"
      },
      "physicalStationIds": [
        "PS_TOKUYAMA"
      ],
      "centroid": {
        "lat": 34.051555,
        "lon": 131.8029
      },
      "category": "hub",
      "labelRank": 100,
      "tags": [
        "shinkansen"
      ]
    },
    {
      "id": "SG_SHIN_YAMAGUCHI",
      "primaryName": "Shin-Yamaguchi",
      "names": {
        "en": "Shin-Yamaguchi",
        "ja": "新山口",
        "zh_hans": "Shin-Yamaguchi"
      },
      "physicalStationIds": [
        "PS_SHIN_YAMAGUCHI"
      ],
      "centroid": {
        "lat": 34.093255,
        "lon": 131.39657
      },
      "category": "hub",
      "labelRank": 100,
      "tags": [
        "shinkansen"
      ]
    },
    {
      "id": "SG_ASA",
      "primaryName": "Asa",
      "names": {
        "en": "Asa",
        "ja": "厚狭",
        "zh_hans": "Asa"
      },
      "physicalStationIds": [
        "PS_ASA"
      ],
      "centroid": {
        "lat": 34.053361,
        "lon": 131.159965
      },
      "category": "normal",
      "labelRank": 50,
      "tags": [
        "shinkansen"
      ]
    },
    {
      "id": "SG_SHIN_SHIMONOSEKI",
      "primaryName": "Shin-Shimonoseki",
      "names": {
        "en": "Shin-Shimonoseki",
        "ja": "新下関",
        "zh_hans": "Shin-Shimonoseki"
      },
      "physicalStationIds": [
        "PS_SHIN_SHIMONOSEKI"
      ],
      "centroid": {
        "lat": 34.005651,
        "lon": 130.948021
      },
      "category": "hub",
      "labelRank": 100,
      "tags": [
        "shinkansen"
      ]
    },
    {
      "id": "SG_KOKURA",
      "primaryName": "Kokura",
      "names": {
        "en": "Kokura",
        "ja": "小倉",
        "zh_hans": "Kokura"
      },
      "physicalStationIds": [
        "PS_KOKURA"
      ],
      "centroid": {
        "lat": 33.886756,
        "lon": 130.882678
      },
      "category": "hub",
      "labelRank": 100,
      "tags": [
        "shinkansen"
      ]
    },
    {
      "id": "SG_HAKATA",
      "primaryName": "Hakata",
      "names": {
        "en": "Hakata",
        "ja": "博多",
        "zh_hans": "Hakata"
      },
      "physicalStationIds": [
        "PS_HAKATA"
      ],
      "centroid": {
        "lat": 33.590002,
        "lon": 130.420622
      },
      "category": "hub",
      "labelRank": 100,
      "tags": [
        "shinkansen"
      ]
    },
    {
      "id": "SG_SHIN_TOSU",
      "primaryName": "Shin-Tosu",
      "names": {
        "en": "Shin-Tosu",
        "ja": "新鳥栖",
        "zh_hans": "Shin-Tosu"
      },
      "physicalStationIds": [
        "PS_SHIN_TOSU"
      ],
      "centroid": {
        "lat": 33.370278,
        "lon": 130.491111
      },
      "category": "hub",
      "labelRank": 100,
      "tags": [
        "shinkansen"
      ]
    },
    {
      "id": "SG_KURUME",
      "primaryName": "Kurume",
      "names": {
        "en": "Kurume",
        "ja": "久留米",
        "zh_hans": "Kurume"
      },
      "physicalStationIds": [
        "PS_KURUME"
      ],
      "centroid": {
        "lat": 33.319778,
        "lon": 130.501408
      },
      "category": "hub",
      "labelRank": 100,
      "tags": [
        "shinkansen"
      ]
    },
    {
      "id": "SG_CHIKUGO_FUNAGOYA",
      "primaryName": "Chikugo-Funagoya",
      "names": {
        "en": "Chikugo-Funagoya",
        "ja": "筑後船小屋",
        "zh_hans": "Chikugo-Funagoya"
      },
      "physicalStationIds": [
        "PS_CHIKUGO_FUNAGOYA"
      ],
      "centroid": {
        "lat": 33.17802332986661,
        "lon": 130.49160361289978
      },
      "category": "normal",
      "labelRank": 50,
      "tags": [
        "shinkansen"
      ]
    },
    {
      "id": "SG_SHIN_OMUTA",
      "primaryName": "Shin-Omuta",
      "names": {
        "en": "Shin-Omuta",
        "ja": "新大牟田",
        "zh_hans": "Shin-Omuta"
      },
      "physicalStationIds": [
        "PS_SHIN_OMUTA"
      ],
      "centroid": {
        "lat": 33.07125,
        "lon": 130.48875
      },
      "category": "normal",
      "labelRank": 50,
      "tags": [
        "shinkansen"
      ]
    },
    {
      "id": "SG_SHIN_TAMANA",
      "primaryName": "Shin-Tamana",
      "names": {
        "en": "Shin-Tamana",
        "ja": "新玉名",
        "zh_hans": "Shin-Tamana"
      },
      "physicalStationIds": [
        "PS_SHIN_TAMANA"
      ],
      "centroid": {
        "lat": 32.9425,
        "lon": 130.57355556
      },
      "category": "normal",
      "labelRank": 50,
      "tags": [
        "shinkansen"
      ]
    },
    {
      "id": "SG_KUMAMOTO",
      "primaryName": "Kumamoto",
      "names": {
        "en": "Kumamoto",
        "ja": "熊本",
        "zh_hans": "Kumamoto"
      },
      "physicalStationIds": [
        "PS_KUMAMOTO"
      ],
      "centroid": {
        "lat": 32.789207,
        "lon": 130.688499
      },
      "category": "hub",
      "labelRank": 100,
      "tags": [
        "shinkansen"
      ]
    },
    {
      "id": "SG_SHIN_YATSUSHIRO",
      "primaryName": "Shin-Yatsushiro",
      "names": {
        "en": "Shin-Yatsushiro",
        "ja": "新八代",
        "zh_hans": "Shin-Yatsushiro"
      },
      "physicalStationIds": [
        "PS_SHIN_YATSUSHIRO"
      ],
      "centroid": {
        "lat": 32.517888,
        "lon": 130.634919
      },
      "category": "hub",
      "labelRank": 100,
      "tags": [
        "shinkansen"
      ]
    },
    {
      "id": "SG_SHIN_MINAMATA",
      "primaryName": "Shin-Minamata",
      "names": {
        "en": "Shin-Minamata",
        "ja": "新水俣",
        "zh_hans": "Shin-Minamata"
      },
      "physicalStationIds": [
        "PS_SHIN_MINAMATA"
      ],
      "centroid": {
        "lat": 32.210825,
        "lon": 130.428893
      },
      "category": "normal",
      "labelRank": 50,
      "tags": [
        "shinkansen"
      ]
    },
    {
      "id": "SG_IZUMI",
      "primaryName": "Izumi",
      "names": {
        "en": "Izumi",
        "ja": "出水",
        "zh_hans": "Izumi"
      },
      "physicalStationIds": [
        "PS_IZUMI"
      ],
      "centroid": {
        "lat": 32.089275,
        "lon": 130.357803
      },
      "category": "normal",
      "labelRank": 50,
      "tags": [
        "shinkansen"
      ]
    },
    {
      "id": "SG_SENDAI_KYUSHU",
      "primaryName": "Sendai",
      "names": {
        "en": "Sendai",
        "ja": "川内",
        "zh_hans": "Sendai"
      },
      "physicalStationIds": [
        "PS_SENDAI_KYUSHU"
      ],
      "centroid": {
        "lat": 31.813726,
        "lon": 130.31213
      },
      "category": "hub",
      "labelRank": 100,
      "tags": [
        "shinkansen"
      ]
    },
    {
      "id": "SG_KAGOSHIMA_CHUO",
      "primaryName": "Kagoshima-Chuo",
      "names": {
        "en": "Kagoshima-Chuo",
        "ja": "鹿児島中央",
        "zh_hans": "Kagoshima-Chuo"
      },
      "physicalStationIds": [
        "PS_KAGOSHIMA_CHUO"
      ],
      "centroid": {
        "lat": 31.583727,
        "lon": 130.541789
      },
      "category": "hub",
      "labelRank": 100,
      "tags": [
        "shinkansen"
      ]
    },
    {
      "id": "SG_TAKEO_ONSEN",
      "primaryName": "Takeo-Onsen",
      "names": {
        "en": "Takeo-Onsen",
        "ja": "武雄温泉",
        "zh_hans": "Takeo-Onsen"
      },
      "physicalStationIds": [
        "PS_TAKEO_ONSEN"
      ],
      "centroid": {
        "lat": 33.196151,
        "lon": 130.022322
      },
      "category": "hub",
      "labelRank": 100,
      "tags": [
        "shinkansen"
      ]
    },
    {
      "id": "SG_URESHINO_ONSEN",
      "primaryName": "Ureshino-Onsen",
      "names": {
        "en": "Ureshino-Onsen",
        "ja": "嬉野温泉",
        "zh_hans": "Ureshino-Onsen"
      },
      "physicalStationIds": [
        "PS_URESHINO_ONSEN"
      ],
      "centroid": {
        "lat": 33.10655556,
        "lon": 129.99897222
      },
      "category": "normal",
      "labelRank": 50,
      "tags": [
        "shinkansen"
      ]
    },
    {
      "id": "SG_SHIN_OMURA",
      "primaryName": "Shin-Omura",
      "names": {
        "en": "Shin-Omura",
        "ja": "新大村",
        "zh_hans": "Shin-Omura"
      },
      "physicalStationIds": [
        "PS_SHIN_OMURA"
      ],
      "centroid": {
        "lat": 32.93277778,
        "lon": 129.95694444
      },
      "category": "normal",
      "labelRank": 50,
      "tags": [
        "shinkansen"
      ]
    },
    {
      "id": "SG_ISAHAYA",
      "primaryName": "Isahaya",
      "names": {
        "en": "Isahaya",
        "ja": "諫早",
        "zh_hans": "Isahaya"
      },
      "physicalStationIds": [
        "PS_ISAHAYA"
      ],
      "centroid": {
        "lat": 32.851018,
        "lon": 130.041596
      },
      "category": "hub",
      "labelRank": 100,
      "tags": [
        "shinkansen"
      ]
    },
    {
      "id": "SG_NAGASAKI",
      "primaryName": "Nagasaki",
      "names": {
        "en": "Nagasaki",
        "ja": "長崎",
        "zh_hans": "Nagasaki"
      },
      "physicalStationIds": [
        "PS_NAGASAKI"
      ],
      "centroid": {
        "lat": 32.75275,
        "lon": 129.86905556
      },
      "category": "hub",
      "labelRank": 100,
      "tags": [
        "shinkansen"
      ]
    }
  ],
  "trackCenterlines": [
    {
      "id": "TRACK_TOHOKU",
      "operatorId": "JAPAN_SHINKANSEN",
      "lineName": "Tohoku",
      "mode": "shinkansen",
      "polyline": [
        {
          "lat": 35.681391,
          "lon": 139.766103
        },
        {
          "lat": 35.71379,
          "lon": 139.777043
        },
        {
          "lat": 35.906439,
          "lon": 139.62405
        },
        {
          "lat": 36.312747,
          "lon": 139.806241
        },
        {
          "lat": 36.559246,
          "lon": 139.898389
        },
        {
          "lat": 36.931956,
          "lon": 140.020694
        },
        {
          "lat": 37.12331,
          "lon": 140.188969
        },
        {
          "lat": 37.398187,
          "lon": 140.389363
        },
        {
          "lat": 37.754123,
          "lon": 140.45968
        },
        {
          "lat": 37.99554444,
          "lon": 140.63308611
        },
        {
          "lat": 38.260749,
          "lon": 140.878514
        },